{"type":"FeatureCollection","name":"fuentes_agua_potable_madrid","crs":{"type":"name","properties":{"name":"urn:ogc:def:crs:OGC:1.3:CRS84"}},"features":[{"type":"Feature","properties":{"id":10040803,"estado":"OPERATIVO","distrito":"HORTALEZA","barrio":"VALDEFUENTES","direccion":"Avenida Avenida de las Fuerzas Armadas, 11"},"geometry":{"type":"Point","coordinates":[-3.621439,40.483532]}},{"type":"Feature","properties":{"id":10040808,"estado":"OPERATIVO","distrito":"HORTALEZA","barrio":"VALDEFUENTES","direccion":"Calle Calle Ariadna, 2"},"geometry":{"type":"Point","coordinates":[-3.627245,40.472386]}},{"type":"Feature","properties":{"id":10040811,"estado":"OPERATIVO","distrito":"PUENTE DE VALLECAS","barrio":"ENTREVIAS","direccion":"Avenida Avenida del Conocimiento"},"geometry":{"type":"Point","coordinates":[-3.669122,40.367008]}},{"type":"Feature","properties":{"id":10040812,"estado":"OPERATIVO","distrito":"PUENTE DE VALLECAS","barrio":"ENTREVIAS","direccion":"Avenida Avenida del Conocimiento"},"geometry":{"type":"Point","coordinates":[-3.67236,40.364929]}},{"type":"Feature","properties":{"id":10046448,"estado":"CERRADA_TEMPORALMENT","distrito":"CENTRO","barrio":"PALACIO","direccion":"CALLE JERTE, 3"},"geometry":{"type":"Point","coordinates":[-3.715563,40.410426]}},{"type":"Feature","properties":{"id":10052854,"estado":"OPERATIVO","distrito":"USERA","barrio":"SAN FERMIN","direccion":"CALLE POPULAR MADRILEÑA, 11"},"geometry":{"type":"Point","coordinates":[-3.692494,40.370673]}},{"type":"Feature","properties":{"id":10081659,"estado":"CERRADA_TEMPORALMENT","distrito":"CIUDAD LINEAL","barrio":"VENTAS","direccion":"CALLE FELIX RODRIGUEZ DE LA FUENTE, 26"},"geometry":{"type":"Point","coordinates":[-3.654953,40.418788]}},{"type":"Feature","properties":{"id":10083506,"estado":"OPERATIVO","distrito":"PUENTE DE VALLECAS","barrio":"ENTREVIAS","direccion":"CALLE CONCEJO DE TEVERGA, 22"},"geometry":{"type":"Point","coordinates":[-3.674828,40.384315]}},{"type":"Feature","properties":{"id":10083544,"estado":"OPERATIVO","distrito":"USERA","barrio":"MOSCARDO","direccion":"CALLE MARQUESA DE SILVELA, 15"},"geometry":{"type":"Point","coordinates":[-3.712972,40.386137]}},{"type":"Feature","properties":{"id":10087194,"estado":"CERRADA_TEMPORALMENT","distrito":"TETUAN","barrio":"VALDEACEDERAS","direccion":"CALLE PANDO, 2"},"geometry":{"type":"Point","coordinates":[-3.705042,40.468455]}},{"type":"Feature","properties":{"id":10087195,"estado":"CERRADA_TEMPORALMENT","distrito":"TETUAN","barrio":"VALDEACEDERAS","direccion":"CALLE PANDO, 6"},"geometry":{"type":"Point","coordinates":[-3.705467,40.468512]}},{"type":"Feature","properties":{"id":10125439,"estado":"OPERATIVO","distrito":"USERA","barrio":"MOSCARDO","direccion":"CALLE CALESAS, 19"},"geometry":{"type":"Point","coordinates":[-3.70539,40.389757]}},{"type":"Feature","properties":{"id":10130599,"estado":"OPERATIVO","distrito":"SAN BLAS-CANILLEJAS","barrio":"HELLIN","direccion":"CALLE ALCONERA, 22"},"geometry":{"type":"Point","coordinates":[-3.617842,40.430398]}},{"type":"Feature","properties":{"id":10133790,"estado":"OPERATIVO","distrito":"PUENTE DE VALLECAS","barrio":"PALOMERAS SURESTE","direccion":"AVENIDA ALBUFERA, 306"},"geometry":{"type":"Point","coordinates":[-3.63439,40.384763]}},{"type":"Feature","properties":{"id":10133793,"estado":"OPERATIVO","distrito":"PUENTE DE VALLECAS","barrio":"PALOMERAS SURESTE","direccion":"AVENIDA ALBUFERA, 306"},"geometry":{"type":"Point","coordinates":[-3.633296,40.384416]}},{"type":"Feature","properties":{"id":10140013,"estado":"NO_PREPARADO","distrito":"USERA","barrio":"MOSCARDO","direccion":"CALLE ANDRES ARTEAGA, 26"},"geometry":{"type":"Point","coordinates":[-3.707158,40.387164]}},{"type":"Feature","properties":{"id":10030549,"estado":"OPERATIVO","distrito":"VILLA DE VALLECAS","barrio":"CASCO HISTORICO DE VALLECAS","direccion":"CALLE MUELA DE SAN JUAN, 5"},"geometry":{"type":"Point","coordinates":[-3.619005,40.375403]}},{"type":"Feature","properties":{"id":10040804,"estado":"OPERATIVO","distrito":"HORTALEZA","barrio":"VALDEFUENTES","direccion":"Avenida Avenida de las Fuerzas Armadas, 11"},"geometry":{"type":"Point","coordinates":[-3.618084,40.483454]}},{"type":"Feature","properties":{"id":10040805,"estado":"OPERATIVO","distrito":"HORTALEZA","barrio":"VALDEFUENTES","direccion":"Avenida Avenida de las Fuerzas Armadas, 11"},"geometry":{"type":"Point","coordinates":[-3.618221,40.492059]}},{"type":"Feature","properties":{"id":10040806,"estado":"OPERATIVO","distrito":"HORTALEZA","barrio":"VALDEFUENTES","direccion":"Avenida Avenida de las Fuerzas Armadas, 11"},"geometry":{"type":"Point","coordinates":[-3.622171,40.488923]}},{"type":"Feature","properties":{"id":10040807,"estado":"OPERATIVO","distrito":"HORTALEZA","barrio":"VALDEFUENTES","direccion":"Calle Calle Ariadna, 2"},"geometry":{"type":"Point","coordinates":[-3.6262,40.471718]}},{"type":"Feature","properties":{"id":10075664,"estado":"CERRADA_TEMPORALMENT","distrito":"MONCLOA-ARAVACA","barrio":"CASA DE CAMPO","direccion":"CALLE SAN POL DE MAR, 7"},"geometry":{"type":"Point","coordinates":[-3.727257,40.423662]}},{"type":"Feature","properties":{"id":10098794,"estado":"OPERATIVO","distrito":"CHAMBERI","barrio":"RIOS ROSAS","direccion":"PASEO CASTELLANA, 65"},"geometry":{"type":"Point","coordinates":[-3.691739,40.445597]}},{"type":"Feature","properties":{"id":10115756,"estado":"OPERATIVO","distrito":"CARABANCHEL","barrio":"OPAÑEL","direccion":"AVENIDA OPORTO, 86"},"geometry":{"type":"Point","coordinates":[-3.728964,40.387008]}},{"type":"Feature","properties":{"id":10116446,"estado":"OPERATIVO","distrito":"VILLA DE VALLECAS","barrio":"ENSANCHE DE VALLECAS","direccion":"CALLE EMBALSE DE NAVACERRADA, 27"},"geometry":{"type":"Point","coordinates":[-3.600243,40.361367]}},{"type":"Feature","properties":{"id":10116451,"estado":"CERRADA_TEMPORALMENT","distrito":"VILLA DE VALLECAS","barrio":"ENSANCHE DE VALLECAS","direccion":"AVENIDA SALMEDINA, 61"},"geometry":{"type":"Point","coordinates":[-3.600963,40.360565]}},{"type":"Feature","properties":{"id":10121074,"estado":"OPERATIVO","distrito":"USERA","barrio":"ORCASITAS","direccion":"CALLE VILLABONA, 58"},"geometry":{"type":"Point","coordinates":[-3.714075,40.368563]}},{"type":"Feature","properties":{"id":10121350,"estado":"OPERATIVO","distrito":"SAN BLAS-CANILLEJAS","barrio":"REJAS","direccion":"CALLE FUENCEMILLAN, 53  B"},"geometry":{"type":"Point","coordinates":[-3.571802,40.444104]}},{"type":"Feature","properties":{"id":10126247,"estado":"OPERATIVO","distrito":"SAN BLAS-CANILLEJAS","barrio":"ARCOS","direccion":"CALLE ARTIFICES, 1"},"geometry":{"type":"Point","coordinates":[-3.618223,40.424767]}},{"type":"Feature","properties":{"id":10133797,"estado":"OPERATIVO","distrito":"PUENTE DE VALLECAS","barrio":"PALOMERAS SURESTE","direccion":"AVENIDA ALBUFERA, 447"},"geometry":{"type":"Point","coordinates":[-3.629703,40.382837]}},{"type":"Feature","properties":{"id":10133798,"estado":"OPERATIVO","distrito":"PUENTE DE VALLECAS","barrio":"PALOMERAS SURESTE","direccion":"AVENIDA DEMOCRACIA, 1"},"geometry":{"type":"Point","coordinates":[-3.625161,40.382327]}},{"type":"Feature","properties":{"id":10136752,"estado":"OPERATIVO","distrito":"MORATALAZ","barrio":"VINATEROS","direccion":"CALLE PICO DE LOS ARTILLEROS, 116"},"geometry":{"type":"Point","coordinates":[-3.641906,40.405953]}},{"type":"Feature","properties":{"id":10136943,"estado":"OPERATIVO","distrito":"MORATALAZ","barrio":"VINATEROS","direccion":"CALLE PICO DE LOS ARTILLEROS, 40"},"geometry":{"type":"Point","coordinates":[-3.641171,40.408059]}},{"type":"Feature","properties":{"id":10139972,"estado":"OPERATIVO","distrito":"LATINA","barrio":"CAMPAMENTO","direccion":"CALLE AZOR, 6"},"geometry":{"type":"Point","coordinates":[-3.768878,40.398577]}},{"type":"Feature","properties":{"id":10140020,"estado":"NO_PREPARADO","distrito":"USERA","barrio":"PRADOLONGO","direccion":"CALLE ORTIZ CAMPOS, 14"},"geometry":{"type":"Point","coordinates":[-3.707454,40.385238]}},{"type":"Feature","properties":{"id":10140022,"estado":"NO_PREPARADO","distrito":"USERA","barrio":"PRADOLONGO","direccion":"CALLE ANTONIA USERA, 3"},"geometry":{"type":"Point","coordinates":[-3.706666,40.383987]}},{"type":"Feature","properties":{"id":10140023,"estado":"NO_PREPARADO","distrito":"USERA","barrio":"PRADOLONGO","direccion":"PLAZA HIDROGENO, 3"},"geometry":{"type":"Point","coordinates":[-3.707868,40.383195]}},{"type":"Feature","properties":{"id":1118924,"estado":"CERRADA_TEMPORALMENT","distrito":"MONCLOA-ARAVACA","barrio":"CASA DE CAMPO","direccion":"CALLE RIBERA DEL MANZANARES, 123"},"geometry":{"type":"Point","coordinates":[-3.73263,40.42901]}},{"type":"Feature","properties":{"id":3530207,"estado":"CERRADA_TEMPORALMENT","distrito":"HORTALEZA","barrio":"VALDEFUENTES","direccion":"CALLE JULIO CANO LASSO, 47"},"geometry":{"type":"Point","coordinates":[-3.605423,40.493626]}},{"type":"Feature","properties":{"id":3531365,"estado":"CERRADA_TEMPORALMENT","distrito":"FUENCARRAL-EL PARDO","barrio":"MIRASIERRA","direccion":"CALLE MARIA DE MAEZTU, 148"},"geometry":{"type":"Point","coordinates":[-3.721724,40.496666]}},{"type":"Feature","properties":{"id":3531367,"estado":"CERRADA_TEMPORALMENT","distrito":"FUENCARRAL-EL PARDO","barrio":"MIRASIERRA","direccion":"CALLE MARIA DE MAEZTU, 120"},"geometry":{"type":"Point","coordinates":[-3.723117,40.494608]}},{"type":"Feature","properties":{"id":3531372,"estado":"CERRADA_TEMPORALMENT","distrito":"FUENCARRAL-EL PARDO","barrio":"MIRASIERRA","direccion":"CALLE SENDA DEL INFANTE, 54"},"geometry":{"type":"Point","coordinates":[-3.724727,40.493332]}},{"type":"Feature","properties":{"id":3531377,"estado":"CERRADA_TEMPORALMENT","distrito":"FUENCARRAL-EL PARDO","barrio":"PILAR","direccion":"AVENIDA EL FERROL, 35"},"geometry":{"type":"Point","coordinates":[-3.707301,40.473242]}},{"type":"Feature","properties":{"id":3531398,"estado":"OPERATIVO","distrito":"MONCLOA-ARAVACA","barrio":"CIUDAD UNIVERSITARIA","direccion":"PASEO JUAN XXIII, 21"},"geometry":{"type":"Point","coordinates":[-3.713955,40.450866]}},{"type":"Feature","properties":{"id":3558557,"estado":"CERRADA_TEMPORALMENT","distrito":"HORTALEZA","barrio":"VALDEFUENTES","direccion":"CALLE ESTANISLAO PEREZ PITA, 70"},"geometry":{"type":"Point","coordinates":[-3.606283,40.488899]}},{"type":"Feature","properties":{"id":3568640,"estado":"CERRADA_TEMPORALMENT","distrito":"LATINA","barrio":"PUERTA DEL ANGEL","direccion":"CALLE PABLO CASALS, 2"},"geometry":{"type":"Point","coordinates":[-3.724145,40.411706]}},{"type":"Feature","properties":{"id":3568799,"estado":"OPERATIVO","distrito":"CIUDAD LINEAL","barrio":"PUEBLO NUEVO","direccion":"CALLE LUIS RUIZ, 48"},"geometry":{"type":"Point","coordinates":[-3.637712,40.429089]}},{"type":"Feature","properties":{"id":10140021,"estado":"NO_PREPARADO","distrito":"USERA","barrio":"PRADOLONGO","direccion":"CALLE FELIPE CASTRO, 9"},"geometry":{"type":"Point","coordinates":[-3.707321,40.384377]}},{"type":"Feature","properties":{"id":1118899,"estado":"CERRADA_TEMPORALMENT","distrito":"VICALVARO","barrio":"CASCO HISTORICO DE VICALVARO","direccion":"CALLE CALAHORRA, 22 B"},"geometry":{"type":"Point","coordinates":[-3.610223,40.409163]}},{"type":"Feature","properties":{"id":1118921,"estado":"CERRADA_TEMPORALMENT","distrito":"SALAMANCA","barrio":"FUENTE DEL BERRO","direccion":"PLAZA AMERICA ESPAÑOLA, 1"},"geometry":{"type":"Point","coordinates":[-3.661595,40.429063]}},{"type":"Feature","properties":{"id":3530213,"estado":"CERRADA_TEMPORALMENT","distrito":"HORTALEZA","barrio":"VALDEFUENTES","direccion":"CALLE FERNANDO HIGUERAS, 55"},"geometry":{"type":"Point","coordinates":[-3.605345,40.486314]}},{"type":"Feature","properties":{"id":3530535,"estado":"OPERATIVO","distrito":"CIUDAD LINEAL","barrio":"COSTILLARES","direccion":"CALLE JAZMIN, 49"},"geometry":{"type":"Point","coordinates":[-3.661994,40.482674]}},{"type":"Feature","properties":{"id":3530545,"estado":"CERRADA_TEMPORALMENT","distrito":"SAN BLAS-CANILLEJAS","barrio":"HELLIN","direccion":"AVENIDA ARCENTALES, 4"},"geometry":{"type":"Point","coordinates":[-3.622118,40.430384]}},{"type":"Feature","properties":{"id":3530650,"estado":"OPERATIVO","distrito":"FUENCARRAL-EL PARDO","barrio":"PEÑAGRANDE","direccion":"CALLE JOAQUIN LORENZO, 36"},"geometry":{"type":"Point","coordinates":[-3.726618,40.473861]}},{"type":"Feature","properties":{"id":3530868,"estado":"OPERATIVO","distrito":"CENTRO","barrio":"SOL","direccion":"CALLE CIUDAD RODRIGO, 6"},"geometry":{"type":"Point","coordinates":[-3.708639,40.415749]}},{"type":"Feature","properties":{"id":3531364,"estado":"OPERATIVO","distrito":"FUENCARRAL-EL PARDO","barrio":"PILAR","direccion":"CALLE RIBADAVIA, 45"},"geometry":{"type":"Point","coordinates":[-3.70745,40.472852]}},{"type":"Feature","properties":{"id":3531374,"estado":"CERRADA_TEMPORALMENT","distrito":"FUENCARRAL-EL PARDO","barrio":"VALVERDE","direccion":"CARRETERA FUENCARRAL A HORTALEZA, 7"},"geometry":{"type":"Point","coordinates":[-3.680565,40.507303]}},{"type":"Feature","properties":{"id":3565789,"estado":"CERRADA_TEMPORALMENT","distrito":"RETIRO","barrio":"ADELFAS","direccion":"CALLE CERRO NEGRO, 12 C"},"geometry":{"type":"Point","coordinates":[-3.67223,40.395889]}},{"type":"Feature","properties":{"id":3565880,"estado":"CERRADA_TEMPORALMENT","distrito":"MONCLOA-ARAVACA","barrio":"ARGÜELLES","direccion":"PASEO PINTOR ROSALES, 16"},"geometry":{"type":"Point","coordinates":[-3.718569,40.426015]}},{"type":"Feature","properties":{"id":3567461,"estado":"OPERATIVO","distrito":"CENTRO","barrio":"JUSTICIA","direccion":"CALLE BENEFICENCIA, 8"},"geometry":{"type":"Point","coordinates":[-3.699897,40.426067]}},{"type":"Feature","properties":{"id":3568639,"estado":"OPERATIVO","distrito":"ARGANZUELA","barrio":"DELICIAS","direccion":"CALLE HIERRO, 2"},"geometry":{"type":"Point","coordinates":[-3.692388,40.393464]}},{"type":"Feature","properties":{"id":3568641,"estado":"OPERATIVO","distrito":"FUENCARRAL-EL PARDO","barrio":"PEÑAGRANDE","direccion":"CALLE FERMIN CABALLERO, 84"},"geometry":{"type":"Point","coordinates":[-3.717524,40.479767]}},{"type":"Feature","properties":{"id":3568801,"estado":"OPERATIVO","distrito":"CIUDAD LINEAL","barrio":"SAN JUAN BAUTISTA","direccion":"PLAZA VALVANERA, 5"},"geometry":{"type":"Point","coordinates":[-3.657133,40.4502]}},{"type":"Feature","properties":{"id":3569158,"estado":"CERRADA_TEMPORALMENT","distrito":"TETUAN","barrio":"VALDEACEDERAS","direccion":"CALLE MARQUES DE VIANA, 58"},"geometry":{"type":"Point","coordinates":[-3.703282,40.463253]}},{"type":"Feature","properties":{"id":3569414,"estado":"OPERATIVO","distrito":"RETIRO","barrio":"PACIFICO","direccion":"PLAZA CONDE DE CASAL, 10"},"geometry":{"type":"Point","coordinates":[-3.670786,40.406457]}},{"type":"Feature","properties":{"id":3569415,"estado":"OPERATIVO","distrito":"FUENCARRAL-EL PARDO","barrio":"PILAR","direccion":"AVENIDA MONFORTE DE LEMOS, 36"},"geometry":{"type":"Point","coordinates":[-3.708462,40.478703]}},{"type":"Feature","properties":{"id":3576061,"estado":"CERRADA_TEMPORALMENT","distrito":"SAN BLAS-CANILLEJAS","barrio":"ROSAS","direccion":"CALLE CARLOS II, 2"},"geometry":{"type":"Point","coordinates":[-3.607161,40.427294]}},{"type":"Feature","properties":{"id":3576073,"estado":"CERRADA_TEMPORALMENT","distrito":"VILLA DE VALLECAS","barrio":"ENSANCHE DE VALLECAS","direccion":"CALLE ALTO DEL RETIRO, 13"},"geometry":{"type":"Point","coordinates":[-3.591542,40.368457]}},{"type":"Feature","properties":{"id":3576085,"estado":"OPERATIVO","distrito":"VILLA DE VALLECAS","barrio":"ENSANCHE DE VALLECAS","direccion":"CALLE FERNANDO CHUECA GOITIA, 31"},"geometry":{"type":"Point","coordinates":[-3.59346,40.361768]}},{"type":"Feature","properties":{"id":3576087,"estado":"FUERA_DE_SERVICIO","distrito":"PUENTE DE VALLECAS","barrio":"PALOMERAS SURESTE","direccion":"CALLE EXTREMEÑOS, 5"},"geometry":{"type":"Point","coordinates":[-3.643894,40.384259]}},{"type":"Feature","properties":{"id":3581346,"estado":"OPERATIVO","distrito":"VILLAVERDE","barrio":"LOS ROSALES","direccion":"CALLE SANTA PETRONILA, 16"},"geometry":{"type":"Point","coordinates":[-3.692319,40.350804]}},{"type":"Feature","properties":{"id":3655196,"estado":"FUERA_DE_SERVICIO","distrito":"FUENCARRAL-EL PARDO","barrio":"VALVERDE","direccion":"CALLE MATARO, 2"},"geometry":{"type":"Point","coordinates":[-3.694261,40.493936]}},{"type":"Feature","properties":{"id":3568802,"estado":"OPERATIVO","distrito":"CIUDAD LINEAL","barrio":"QUINTANA","direccion":"CALLE VIRGEN DE LLUC, 42"},"geometry":{"type":"Point","coordinates":[-3.651689,40.435254]}},{"type":"Feature","properties":{"id":3569053,"estado":"OPERATIVO","distrito":"SALAMANCA","barrio":"FUENTE DEL BERRO","direccion":"CALLE RUFINO BLANCO, 27"},"geometry":{"type":"Point","coordinates":[-3.665066,40.426994]}},{"type":"Feature","properties":{"id":3570475,"estado":"OPERATIVO","distrito":"PUENTE DE VALLECAS","barrio":"NUMANCIA","direccion":"CALLE MARUJA GARCIA ROMERO, 7"},"geometry":{"type":"Point","coordinates":[-3.65599,40.402434]}},{"type":"Feature","properties":{"id":3576057,"estado":"OPERATIVO","distrito":"SALAMANCA","barrio":"CASTELLANA","direccion":"CALLE CLAUDIO COELLO, 121"},"geometry":{"type":"Point","coordinates":[-3.685477,40.433084]}},{"type":"Feature","properties":{"id":3576059,"estado":"FUERA_DE_SERVICIO","distrito":"USERA","barrio":"ALMENDRALES","direccion":"CALLE ANTONIO LOPEZ, 223"},"geometry":{"type":"Point","coordinates":[-3.695074,40.381475]}},{"type":"Feature","properties":{"id":3576086,"estado":"CERRADA_TEMPORALMENT","distrito":"VILLA DE VALLECAS","barrio":"ENSANCHE DE VALLECAS","direccion":"CALLE RAYO VALLECANO DE MADRID, 1"},"geometry":{"type":"Point","coordinates":[-3.610086,40.378252]}},{"type":"Feature","properties":{"id":3852403,"estado":"CERRADA_TEMPORALMENT","distrito":"MONCLOA-ARAVACA","barrio":"CASA DE CAMPO","direccion":"PLAZA CANCILLERIA, 6"},"geometry":{"type":"Point","coordinates":[-3.733768,40.430767]}},{"type":"Feature","properties":{"id":3852673,"estado":"OPERATIVO","distrito":"CHAMBERI","barrio":"RIOS ROSAS","direccion":"CALLE SANTA ENGRACIA, 120 B"},"geometry":{"type":"Point","coordinates":[-3.701175,40.440846]}},{"type":"Feature","properties":{"id":4741279,"estado":"CERRADA_TEMPORALMENT","distrito":"VICALVARO","barrio":"CASCO HISTORICO DE VICALVARO","direccion":"CALLE LAGO VAN, 16"},"geometry":{"type":"Point","coordinates":[-3.606101,40.40497]}},{"type":"Feature","properties":{"id":4742955,"estado":"OPERATIVO","distrito":"CIUDAD LINEAL","barrio":"VENTAS","direccion":"CALLE SOR MARIA DE AGREDA, 2"},"geometry":{"type":"Point","coordinates":[-3.651006,40.429528]}},{"type":"Feature","properties":{"id":4784162,"estado":"CERRADA_TEMPORALMENT","distrito":"HORTALEZA","barrio":"VALDEFUENTES","direccion":"CALLE TORENO, 3 B"},"geometry":{"type":"Point","coordinates":[-3.635618,40.480805]}},{"type":"Feature","properties":{"id":4784587,"estado":"CERRADA_TEMPORALMENT","distrito":"FUENCARRAL-EL PARDO","barrio":"MIRASIERRA","direccion":"CALLE FEDERICA MONTSENY, 5"},"geometry":{"type":"Point","coordinates":[-3.728036,40.49116]}},{"type":"Feature","properties":{"id":4784714,"estado":"OPERATIVO","distrito":"CHAMARTIN","barrio":"EL VISO","direccion":"CALLE DUQUE DE SEVILLA, 1"},"geometry":{"type":"Point","coordinates":[-3.679285,40.441716]}},{"type":"Feature","properties":{"id":4785335,"estado":"OPERATIVO","distrito":"LATINA","barrio":"PUERTA DEL ANGEL","direccion":"PASEO EXTREMADURA, 156"},"geometry":{"type":"Point","coordinates":[-3.739044,40.4101]}},{"type":"Feature","properties":{"id":4785336,"estado":"CERRADA_TEMPORALMENT","distrito":"FUENCARRAL-EL PARDO","barrio":"VALVERDE","direccion":"AVENIDA CAMINO DE SANTIAGO, 25"},"geometry":{"type":"Point","coordinates":[-3.673606,40.502293]}},{"type":"Feature","properties":{"id":4738570,"estado":"CERRADA_TEMPORALMENT","distrito":"CARABANCHEL","barrio":"BUENAVISTA","direccion":"CALLE TORTA, 3"},"geometry":{"type":"Point","coordinates":[-3.764987,40.364437]}},{"type":"Feature","properties":{"id":4784163,"estado":"CERRADA_TEMPORALMENT","distrito":"VICALVARO","barrio":"VALDEBERNARDO","direccion":"CALLE CORDEL DE PAVONES, 14 A"},"geometry":{"type":"Point","coordinates":[-3.61805,40.401187]}},{"type":"Feature","properties":{"id":4784586,"estado":"CERRADA_TEMPORALMENT","distrito":"FUENCARRAL-EL PARDO","barrio":"MIRASIERRA","direccion":"CALLE MENCHU AJAMIL, 2"},"geometry":{"type":"Point","coordinates":[-3.726551,40.492416]}},{"type":"Feature","properties":{"id":4795658,"estado":"OPERATIVO","distrito":"CENTRO","barrio":"SOL","direccion":"CALLE ARENAL, 18"},"geometry":{"type":"Point","coordinates":[-3.706861,40.41737]}},{"type":"Feature","properties":{"id":4795801,"estado":"OPERATIVO","distrito":"USERA","barrio":"ORCASITAS","direccion":"AVENIDA POBLADOS, 144"},"geometry":{"type":"Point","coordinates":[-3.709009,40.372315]}},{"type":"Feature","properties":{"id":4796090,"estado":"OPERATIVO","distrito":"CARABANCHEL","barrio":"ABRANTES","direccion":"CALLE VIANA, 1"},"geometry":{"type":"Point","coordinates":[-3.719751,40.384855]}},{"type":"Feature","properties":{"id":4796261,"estado":"CERRADA_TEMPORALMENT","distrito":"FUENCARRAL-EL PARDO","barrio":"VALVERDE","direccion":"CALLE SAN JUAN DE ORTEGA, 90"},"geometry":{"type":"Point","coordinates":[-3.675575,40.50779]}},{"type":"Feature","properties":{"id":4798069,"estado":"OPERATIVO","distrito":"HORTALEZA","barrio":"PINAR DEL REY","direccion":"GLORIETA FRANCISCO FERNANDEZ ORDOÑEZ, 4"},"geometry":{"type":"Point","coordinates":[-3.6484,40.468102]}},{"type":"Feature","properties":{"id":4813533,"estado":"CERRADA_TEMPORALMENT","distrito":"HORTALEZA","barrio":"CANILLAS","direccion":"CALLE EL PROVENCIO, 16"},"geometry":{"type":"Point","coordinates":[-3.628391,40.46418]}},{"type":"Feature","properties":{"id":4813550,"estado":"OPERATIVO","distrito":"RETIRO","barrio":"LOS JERONIMOS","direccion":"CALLE JUAN VALERA, 26"},"geometry":{"type":"Point","coordinates":[-3.682554,40.408208]}},{"type":"Feature","properties":{"id":4813553,"estado":"OPERATIVO","distrito":"RETIRO","barrio":"ESTRELLA","direccion":"CALLE ESTRELLA POLAR, 13"},"geometry":{"type":"Point","coordinates":[-3.665764,40.411228]}},{"type":"Feature","properties":{"id":4940126,"estado":"OPERATIVO","distrito":"HORTALEZA","barrio":"APOSTOL SANTIAGO","direccion":"CALLE JULIO DANVILA, 28"},"geometry":{"type":"Point","coordinates":[-3.663079,40.472361]}},{"type":"Feature","properties":{"id":4961115,"estado":"OPERATIVO","distrito":"CHAMBERI","barrio":"RIOS ROSAS","direccion":"CALLE PONZANO, 100"},"geometry":{"type":"Point","coordinates":[-3.698611,40.446269]}},{"type":"Feature","properties":{"id":4963663,"estado":"OPERATIVO","distrito":"MORATALAZ","barrio":"VINATEROS","direccion":"CALLE HACIENDA DE PAVONES, 1"},"geometry":{"type":"Point","coordinates":[-3.650536,40.405378]}},{"type":"Feature","properties":{"id":4988124,"estado":"CERRADA_TEMPORALMENT","distrito":"FUENCARRAL-EL PARDO","barrio":"PEÑAGRANDE","direccion":"AVENIDA VENTISQUERO DE LA CONDESA, 2"},"geometry":{"type":"Point","coordinates":[-3.715392,40.483371]}},{"type":"Feature","properties":{"id":4989817,"estado":"OPERATIVO","distrito":"MONCLOA-ARAVACA","barrio":"ARGÜELLES","direccion":"CALLE PRINCESA, 33"},"geometry":{"type":"Point","coordinates":[-3.714722,40.428284]}},{"type":"Feature","properties":{"id":4991388,"estado":"OPERATIVO","distrito":"CHAMBERI","barrio":"TRAFALGAR","direccion":"GLORIETA BILBAO, 5"},"geometry":{"type":"Point","coordinates":[-3.701784,40.429243]}},{"type":"Feature","properties":{"id":4995656,"estado":"OPERATIVO","distrito":"TETUAN","barrio":"CUATRO CAMINOS","direccion":"PLAZA PABLO RUÍZ PICASSO, 6"},"geometry":{"type":"Point","coordinates":[-3.693543,40.449182]}},{"type":"Feature","properties":{"id":4996359,"estado":"OPERATIVO","distrito":"MONCLOA-ARAVACA","barrio":"VALDEZARZA","direccion":"CALLE VALDERRODRIGO, 46"},"geometry":{"type":"Point","coordinates":[-3.71964,40.468955]}},{"type":"Feature","properties":{"id":4998043,"estado":"CERRADA_TEMPORALMENT","distrito":"HORTALEZA","barrio":"VALDEFUENTES","direccion":"AVENIDA SECUNDINO ZUAZO, 134"},"geometry":{"type":"Point","coordinates":[-3.609944,40.494756]}},{"type":"Feature","properties":{"id":4998045,"estado":"CERRADA_TEMPORALMENT","distrito":"HORTALEZA","barrio":"VALDEFUENTES","direccion":"AVENIDA FRANCISCO JAVIER SAENZ DE OIZA, 15"},"geometry":{"type":"Point","coordinates":[-3.607053,40.501033]}},{"type":"Feature","properties":{"id":4796175,"estado":"OPERATIVO","distrito":"MORATALAZ","barrio":"MARROQUINA","direccion":"AVENIDA DOCTOR GARCIA TAPIA, 92"},"geometry":{"type":"Point","coordinates":[-3.650438,40.412034]}},{"type":"Feature","properties":{"id":4796211,"estado":"OPERATIVO","distrito":"CENTRO","barrio":"EMBAJADORES","direccion":"PLAZA LAVAPIES, 5"},"geometry":{"type":"Point","coordinates":[-3.701021,40.408908]}},{"type":"Feature","properties":{"id":4798068,"estado":"OPERATIVO","distrito":"SAN BLAS-CANILLEJAS","barrio":"ROSAS","direccion":"CALLE LA ILIADA, 31"},"geometry":{"type":"Point","coordinates":[-3.607973,40.435968]}},{"type":"Feature","properties":{"id":4813505,"estado":"CERRADA_TEMPORALMENT","distrito":"FUENCARRAL-EL PARDO","barrio":"FUENTELARREINA","direccion":"CALLE MAETZU, 1"},"geometry":{"type":"Point","coordinates":[-3.732896,40.487315]}},{"type":"Feature","properties":{"id":4813558,"estado":"OPERATIVO","distrito":"RETIRO","barrio":"IBIZA","direccion":"CALLE O'DONNELL, 48"},"geometry":{"type":"Point","coordinates":[-3.672212,40.421234]}},{"type":"Feature","properties":{"id":4828255,"estado":"OPERATIVO","distrito":"MORATALAZ","barrio":"PAVONES","direccion":"CALLE FUENTE CARRANTONA, 4"},"geometry":{"type":"Point","coordinates":[-3.638015,40.397493]}},{"type":"Feature","properties":{"id":4939826,"estado":"OPERATIVO","distrito":"SALAMANCA","barrio":"GUINDALERA","direccion":"CALLE PILAR DE ZARAGOZA, 91"},"geometry":{"type":"Point","coordinates":[-3.67418,40.437776]}},{"type":"Feature","properties":{"id":4940143,"estado":"FUERA_DE_SERVICIO","distrito":"VILLAVERDE","barrio":"LOS ROSALES","direccion":"AVENIDA FELICIDAD, 22"},"geometry":{"type":"Point","coordinates":[-3.689254,40.359091]}},{"type":"Feature","properties":{"id":4940161,"estado":"CERRADA_TEMPORALMENT","distrito":"ARGANZUELA","barrio":"CHOPERA","direccion":"CALLE AGUILON, 15"},"geometry":{"type":"Point","coordinates":[-3.70034,40.397462]}},{"type":"Feature","properties":{"id":4940265,"estado":"OPERATIVO","distrito":"FUENCARRAL-EL PARDO","barrio":"EL GOLOSO","direccion":"CALLE MONASTERIO DE OSEIRA, 3"},"geometry":{"type":"Point","coordinates":[-3.698073,40.508115]}},{"type":"Feature","properties":{"id":4963553,"estado":"OPERATIVO","distrito":"RETIRO","barrio":"PACIFICO","direccion":"CALLE LEON GIL DE PALACIO, 1"},"geometry":{"type":"Point","coordinates":[-3.678595,40.403111]}},{"type":"Feature","properties":{"id":4993815,"estado":"OPERATIVO","distrito":"ARGANZUELA","barrio":"LEGAZPI","direccion":"CALLE EROS, 6"},"geometry":{"type":"Point","coordinates":[-3.67981,40.393238]}},{"type":"Feature","properties":{"id":4995323,"estado":"OPERATIVO","distrito":"CHAMARTIN","barrio":"CIUDAD JARDIN","direccion":"CALLE MARCENADO, 8"},"geometry":{"type":"Point","coordinates":[-3.672792,40.445778]}},{"type":"Feature","properties":{"id":4995326,"estado":"OPERATIVO","distrito":"MORATALAZ","barrio":"MARROQUINA","direccion":"CALLE CORREGIDOR JOSE DE PASAMONTE, 15"},"geometry":{"type":"Point","coordinates":[-3.648882,40.410334]}},{"type":"Feature","properties":{"id":4995334,"estado":"OPERATIVO","distrito":"VILLA DE VALLECAS","barrio":"ENSANCHE DE VALLECAS","direccion":"CALLE ARTE FIGURATIVO, 30"},"geometry":{"type":"Point","coordinates":[-3.584857,40.358818]}},{"type":"Feature","properties":{"id":4998042,"estado":"CERRADA_TEMPORALMENT","distrito":"HORTALEZA","barrio":"VALDEFUENTES","direccion":"PLAZA FRANCISCO DE ASIS CABRERO, 6"},"geometry":{"type":"Point","coordinates":[-3.611874,40.493035]}},{"type":"Feature","properties":{"id":4998044,"estado":"CERRADA_TEMPORALMENT","distrito":"HORTALEZA","barrio":"VALDEFUENTES","direccion":"AVENIDA SECUNDINO ZUAZO, 143"},"geometry":{"type":"Point","coordinates":[-3.608862,40.495447]}},{"type":"Feature","properties":{"id":5003379,"estado":"FUERA_DE_SERVICIO","distrito":"MORATALAZ","barrio":"MEDIA LEGUA","direccion":"CALLE ARROYO DE LA MEDIA LEGUA, 46"},"geometry":{"type":"Point","coordinates":[-3.656147,40.409509]}},{"type":"Feature","properties":{"id":5005855,"estado":"OPERATIVO","distrito":"VILLAVERDE","barrio":"SAN CRISTOBAL","direccion":"PLAZA PINAZO, 7"},"geometry":{"type":"Point","coordinates":[-3.690623,40.342497]}},{"type":"Feature","properties":{"id":5008250,"estado":"OPERATIVO","distrito":"LATINA","barrio":"AGUILAS","direccion":"CALLE VALLE INCLAN, 68 B"},"geometry":{"type":"Point","coordinates":[-3.775782,40.375981]}},{"type":"Feature","properties":{"id":5024349,"estado":"FUERA_DE_SERVICIO","distrito":"CENTRO","barrio":"CORTES","direccion":"PLAZA PRINCIPE ALFONSO, 5"},"geometry":{"type":"Point","coordinates":[-3.700494,40.414841]}},{"type":"Feature","properties":{"id":5024768,"estado":"OPERATIVO","distrito":"ARGANZUELA","barrio":"DELICIAS","direccion":"CALLE AMALTEA, 6"},"geometry":{"type":"Point","coordinates":[-3.682441,40.394831]}},{"type":"Feature","properties":{"id":5024813,"estado":"OPERATIVO","distrito":"MORATALAZ","barrio":"HORCAJO","direccion":"CALLE LUIS DE HOYOS SAINZ, 162 B"},"geometry":{"type":"Point","coordinates":[-3.629039,40.403918]}},{"type":"Feature","properties":{"id":5034852,"estado":"OPERATIVO","distrito":"CENTRO","barrio":"JUSTICIA","direccion":"PASEO RECOLETOS, 17"},"geometry":{"type":"Point","coordinates":[-3.69247,40.421491]}},{"type":"Feature","properties":{"id":5034921,"estado":"CERRADA_TEMPORALMENT","distrito":"BARAJAS","barrio":"CASCO HISTORICO DE BARAJAS","direccion":"CALLE ORION, 2"},"geometry":{"type":"Point","coordinates":[-3.579711,40.476437]}},{"type":"Feature","properties":{"id":5036311,"estado":"OPERATIVO","distrito":"CENTRO","barrio":"SOL","direccion":"CALLE TRES CRUCES, 1"},"geometry":{"type":"Point","coordinates":[-3.70326,40.419109]}},{"type":"Feature","properties":{"id":5036554,"estado":"OPERATIVO","distrito":"CENTRO","barrio":"JUSTICIA","direccion":"CALLE AUGUSTO FIGUEROA, 41"},"geometry":{"type":"Point","coordinates":[-3.69673,40.422037]}},{"type":"Feature","properties":{"id":5036621,"estado":"OPERATIVO","distrito":"CENTRO","barrio":"UNIVERSIDAD","direccion":"PLAZA GUARDIAS DE CORPS, 4"},"geometry":{"type":"Point","coordinates":[-3.710494,40.427184]}},{"type":"Feature","properties":{"id":5069019,"estado":"OPERATIVO","distrito":"ARGANZUELA","barrio":"ACACIAS","direccion":"PASEO YESERIAS, 1"},"geometry":{"type":"Point","coordinates":[-3.712927,40.400737]}},{"type":"Feature","properties":{"id":5069765,"estado":"CERRADA_TEMPORALMENT","distrito":"BARAJAS","barrio":"ALAMEDA DE OSUNA","direccion":"CALLE MANUEL AGUILAR MUÑOZ, 1"},"geometry":{"type":"Point","coordinates":[-3.591771,40.460408]}},{"type":"Feature","properties":{"id":5069859,"estado":"CERRADA_TEMPORALMENT","distrito":"BARAJAS","barrio":"ALAMEDA DE OSUNA","direccion":"CALLE CARABELA, 21"},"geometry":{"type":"Point","coordinates":[-3.590385,40.455832]}},{"type":"Feature","properties":{"id":5074494,"estado":"OPERATIVO","distrito":"CHAMARTIN","barrio":"CASTILLA","direccion":"CALLE AGUSTIN DE FOXA, 12"},"geometry":{"type":"Point","coordinates":[-3.686992,40.46827]}},{"type":"Feature","properties":{"id":5074608,"estado":"OPERATIVO","distrito":"CHAMARTIN","barrio":"HISPANOAMERICA","direccion":"CALLE VICTOR DE LA SERNA, 26"},"geometry":{"type":"Point","coordinates":[-3.671285,40.454756]}},{"type":"Feature","properties":{"id":5106617,"estado":"OPERATIVO","distrito":"BARAJAS","barrio":"CORRALEJOS","direccion":"CALLE BANDE, 31"},"geometry":{"type":"Point","coordinates":[-3.591303,40.464759]}},{"type":"Feature","properties":{"id":5106864,"estado":"CERRADA_TEMPORALMENT","distrito":"BARAJAS","barrio":"TIMON","direccion":"GLORIETA PLAYA DE SAN LORENZO, 4"},"geometry":{"type":"Point","coordinates":[-3.590214,40.470384]}},{"type":"Feature","properties":{"id":5108929,"estado":"OPERATIVO","distrito":"CENTRO","barrio":"EMBAJADORES","direccion":"RONDA TOLEDO, 9"},"geometry":{"type":"Point","coordinates":[-3.705537,40.40586]}},{"type":"Feature","properties":{"id":5109125,"estado":"OPERATIVO","distrito":"CENTRO","barrio":"EMBAJADORES","direccion":"RONDA TOLEDO, 7"},"geometry":{"type":"Point","coordinates":[-3.705737,40.405945]}},{"type":"Feature","properties":{"id":5110283,"estado":"OPERATIVO","distrito":"CENTRO","barrio":"JUSTICIA","direccion":"CALLE SAN LUCAS, 1"},"geometry":{"type":"Point","coordinates":[-3.697104,40.423813]}},{"type":"Feature","properties":{"id":5110430,"estado":"OPERATIVO","distrito":"CENTRO","barrio":"CORTES","direccion":"CALLE ALCALA, 48"},"geometry":{"type":"Point","coordinates":[-3.694855,40.418906]}},{"type":"Feature","properties":{"id":5124718,"estado":"OPERATIVO","distrito":"FUENCARRAL-EL PARDO","barrio":"VALVERDE","direccion":"CALLE BRAILLE, 7"},"geometry":{"type":"Point","coordinates":[-3.692518,40.495489]}},{"type":"Feature","properties":{"id":5007925,"estado":"CERRADA_TEMPORALMENT","distrito":"FUENCARRAL-EL PARDO","barrio":"VALVERDE","direccion":"AVENIDA PUENTE LA REINA, 48"},"geometry":{"type":"Point","coordinates":[-3.677299,40.502768]}},{"type":"Feature","properties":{"id":5034853,"estado":"OPERATIVO","distrito":"CENTRO","barrio":"CORTES","direccion":"PLAZA JACINTO BENAVENTE, 2"},"geometry":{"type":"Point","coordinates":[-3.703127,40.414487]}},{"type":"Feature","properties":{"id":5034922,"estado":"OPERATIVO","distrito":"FUENCARRAL-EL PARDO","barrio":"PEÑAGRANDE","direccion":"AVENIDA CARDENAL HERRERA ORIA, 246  B"},"geometry":{"type":"Point","coordinates":[-3.72034,40.481476]}},{"type":"Feature","properties":{"id":5069011,"estado":"OPERATIVO","distrito":"ARGANZUELA","barrio":"ATOCHA","direccion":"CALLE ALMEZ, 2"},"geometry":{"type":"Point","coordinates":[-3.679218,40.397394]}},{"type":"Feature","properties":{"id":5069025,"estado":"OPERATIVO","distrito":"ARGANZUELA","barrio":"IMPERIAL","direccion":"CALLE TOLEDO, 178"},"geometry":{"type":"Point","coordinates":[-3.714367,40.402056]}},{"type":"Feature","properties":{"id":5125679,"estado":"OPERATIVO","distrito":"CENTRO","barrio":"EMBAJADORES","direccion":"PLAZA TIRSO DE MOLINA, 2"},"geometry":{"type":"Point","coordinates":[-3.703697,40.412335]}},{"type":"Feature","properties":{"id":5125682,"estado":"OPERATIVO","distrito":"CENTRO","barrio":"JUSTICIA","direccion":"PASEO RECOLETOS, 1"},"geometry":{"type":"Point","coordinates":[-3.693276,40.419808]}},{"type":"Feature","properties":{"id":5154582,"estado":"OPERATIVO","distrito":"FUENCARRAL-EL PARDO","barrio":"VALVERDE","direccion":"CALLE CAMINO DE SANTIAGO, 50"},"geometry":{"type":"Point","coordinates":[-3.669772,40.508283]}},{"type":"Feature","properties":{"id":5176229,"estado":"OPERATIVO","distrito":"PUENTE DE VALLECAS","barrio":"PALOMERAS SURESTE","direccion":"CALLE MAQUINILLA, 13"},"geometry":{"type":"Point","coordinates":[-3.637107,40.380047]}},{"type":"Feature","properties":{"id":5176256,"estado":"FUERA_DE_SERVICIO","distrito":"PUENTE DE VALLECAS","barrio":"NUMANCIA","direccion":"CALLE ALTO DEL LEON, 2"},"geometry":{"type":"Point","coordinates":[-3.660446,40.399572]}},{"type":"Feature","properties":{"id":5176269,"estado":"CERRADA_TEMPORALMENT","distrito":"PUENTE DE VALLECAS","barrio":"PORTAZGO","direccion":"CALLE PEDRO LABORDE, 31"},"geometry":{"type":"Point","coordinates":[-3.648307,40.386605]}},{"type":"Feature","properties":{"id":5176279,"estado":"OPERATIVO","distrito":"CARABANCHEL","barrio":"PUERTA BONITA","direccion":"CALLE NUESTRA SEÑORA DE LA ANTIGUA, 52 C"},"geometry":{"type":"Point","coordinates":[-3.740785,40.376725]}},{"type":"Feature","properties":{"id":5176281,"estado":"OPERATIVO","distrito":"CARABANCHEL","barrio":"VISTA ALEGRE","direccion":"PASEO MARCELINO CAMACHO, 6"},"geometry":{"type":"Point","coordinates":[-3.739771,40.385093]}},{"type":"Feature","properties":{"id":5176423,"estado":"OPERATIVO","distrito":"CENTRO","barrio":"PALACIO","direccion":"PLAZA SANTIAGO, 4"},"geometry":{"type":"Point","coordinates":[-3.710814,40.416704]}},{"type":"Feature","properties":{"id":5176425,"estado":"OPERATIVO","distrito":"CENTRO","barrio":"PALACIO","direccion":"PLAZA CONDE DE BARAJAS, 6"},"geometry":{"type":"Point","coordinates":[-3.708596,40.414495]}},{"type":"Feature","properties":{"id":5176426,"estado":"OPERATIVO","distrito":"CENTRO","barrio":"PALACIO","direccion":"PLAZA VIRGEN DE LA PALOMA, 1"},"geometry":{"type":"Point","coordinates":[-3.711996,40.40821]}},{"type":"Feature","properties":{"id":5176428,"estado":"OPERATIVO","distrito":"CENTRO","barrio":"UNIVERSIDAD","direccion":"CALLE SANTA CRUZ DE MARCENADO, 31"},"geometry":{"type":"Point","coordinates":[-3.713353,40.429662]}},{"type":"Feature","properties":{"id":5176474,"estado":"OPERATIVO","distrito":"CENTRO","barrio":"JUSTICIA","direccion":"PLAZA SANTA BARBARA, 10"},"geometry":{"type":"Point","coordinates":[-3.696564,40.42652]}},{"type":"Feature","properties":{"id":5176476,"estado":"OPERATIVO","distrito":"CENTRO","barrio":"PALACIO","direccion":"PLAZA CONDE DE MIRANDA, 2"},"geometry":{"type":"Point","coordinates":[-3.709613,40.414788]}},{"type":"Feature","properties":{"id":5176481,"estado":"OPERATIVO","distrito":"VILLA DE VALLECAS","barrio":"ENSANCHE DE VALLECAS","direccion":"AVENIDA LA GAVIA, 13"},"geometry":{"type":"Point","coordinates":[-3.609349,40.374585]}},{"type":"Feature","properties":{"id":5176483,"estado":"CERRADA_TEMPORALMENT","distrito":"VILLA DE VALLECAS","barrio":"ENSANCHE DE VALLECAS","direccion":"AVENIDA LA GAVIA, 66"},"geometry":{"type":"Point","coordinates":[-3.616566,40.368545]}},{"type":"Feature","properties":{"id":5176484,"estado":"OPERATIVO","distrito":"VILLA DE VALLECAS","barrio":"ENSANCHE DE VALLECAS","direccion":"AVENIDA MAYORAZGO, 1"},"geometry":{"type":"Point","coordinates":[-3.626505,40.370592]}},{"type":"Feature","properties":{"id":5181104,"estado":"OPERATIVO","distrito":"MONCLOA-ARAVACA","barrio":"CIUDAD UNIVERSITARIA","direccion":"PLAZA CRISTO REY, 6"},"geometry":{"type":"Point","coordinates":[-3.717978,40.439388]}},{"type":"Feature","properties":{"id":5181105,"estado":"CERRADA_TEMPORALMENT","distrito":"MONCLOA-ARAVACA","barrio":"CASA DE CAMPO","direccion":"PASEO REY, 26"},"geometry":{"type":"Point","coordinates":[-3.71964,40.422744]}},{"type":"Feature","properties":{"id":5188209,"estado":"CERRADA_TEMPORALMENT","distrito":"MONCLOA-ARAVACA","barrio":"CASA DE CAMPO","direccion":"PASEO REY, 34"},"geometry":{"type":"Point","coordinates":[-3.72298,40.425334]}},{"type":"Feature","properties":{"id":5188221,"estado":"CERRADA_TEMPORALMENT","distrito":"MONCLOA-ARAVACA","barrio":"ARAVACA","direccion":"AVENIDA EUROPA, 36"},"geometry":{"type":"Point","coordinates":[-3.788538,40.44519]}},{"type":"Feature","properties":{"id":5191205,"estado":"OPERATIVO","distrito":"RETIRO","barrio":"PACIFICO","direccion":"AVENIDA MEDITERRANEO, 2"},"geometry":{"type":"Point","coordinates":[-3.678086,40.407256]}},{"type":"Feature","properties":{"id":5192389,"estado":"OPERATIVO","distrito":"SAN BLAS-CANILLEJAS","barrio":"REJAS","direccion":"AVENIDA FERMINA SEVILLANO, 21 B"},"geometry":{"type":"Point","coordinates":[-3.568693,40.444975]}},{"type":"Feature","properties":{"id":5192403,"estado":"OPERATIVO","distrito":"SAN BLAS-CANILLEJAS","barrio":"AMPOSTA","direccion":"CALLE ALBERIQUE, 10 G"},"geometry":{"type":"Point","coordinates":[-3.621529,40.428342]}},{"type":"Feature","properties":{"id":5195509,"estado":"OPERATIVO","distrito":"CHAMBERI","barrio":"TRAFALGAR","direccion":"GLORIETA RUIZ JIMENEZ, 4"},"geometry":{"type":"Point","coordinates":[-3.705541,40.429971]}},{"type":"Feature","properties":{"id":5196347,"estado":"OPERATIVO","distrito":"CHAMBERI","barrio":"VALLEHERMOSO","direccion":"GLORIETA CUATRO CAMINOS, 1"},"geometry":{"type":"Point","coordinates":[-3.704048,40.446551]}},{"type":"Feature","properties":{"id":5202129,"estado":"OPERATIVO","distrito":"CENTRO","barrio":"CORTES","direccion":"CALLE ATOCHA, 73"},"geometry":{"type":"Point","coordinates":[-3.698666,40.412262]}},{"type":"Feature","properties":{"id":5202135,"estado":"OPERATIVO","distrito":"CENTRO","barrio":"EMBAJADORES","direccion":"CALLE SANTA ISABEL, 34"},"geometry":{"type":"Point","coordinates":[-3.698119,40.410629]}},{"type":"Feature","properties":{"id":5202144,"estado":"OPERATIVO","distrito":"CENTRO","barrio":"EMBAJADORES","direccion":"CALLE DOCTOR DRUMEN, 7"},"geometry":{"type":"Point","coordinates":[-3.69335,40.408493]}},{"type":"Feature","properties":{"id":5205476,"estado":"OPERATIVO","distrito":"CENTRO","barrio":"EMBAJADORES","direccion":"PLAZA LA CORRALA, 1"},"geometry":{"type":"Point","coordinates":[-3.702883,40.408041]}},{"type":"Feature","properties":{"id":5205481,"estado":"OPERATIVO","distrito":"CENTRO","barrio":"JUSTICIA","direccion":"PLAZA REY, 1 B"},"geometry":{"type":"Point","coordinates":[-3.695793,40.420101]}},{"type":"Feature","properties":{"id":5205482,"estado":"OPERATIVO","distrito":"CIUDAD LINEAL","barrio":"VENTAS","direccion":"CALLE POETA BLAS DE OTERO, 11"},"geometry":{"type":"Point","coordinates":[-3.654712,40.421377]}},{"type":"Feature","properties":{"id":5205488,"estado":"FUERA_DE_SERVICIO","distrito":"CIUDAD LINEAL","barrio":"COSTILLARES","direccion":"CALLE SERRANO GALVACHE, 40"},"geometry":{"type":"Point","coordinates":[-3.672519,40.474952]}},{"type":"Feature","properties":{"id":5205489,"estado":"OPERATIVO","distrito":"CIUDAD LINEAL","barrio":"SAN PASCUAL","direccion":"CALLE JUAN PEREZ ZUÑIGA, 31"},"geometry":{"type":"Point","coordinates":[-3.64849,40.442998]}},{"type":"Feature","properties":{"id":5209649,"estado":"OPERATIVO","distrito":"SALAMANCA","barrio":"GOYA","direccion":"CALLE TOMAS LOPEZ, 7"},"geometry":{"type":"Point","coordinates":[-3.670056,40.426554]}},{"type":"Feature","properties":{"id":5209650,"estado":"CERRADA_TEMPORALMENT","distrito":"SALAMANCA","barrio":"FUENTE DEL BERRO","direccion":"PLAZA MANUEL BECERRA, 15 B"},"geometry":{"type":"Point","coordinates":[-3.668121,40.427935]}},{"type":"Feature","properties":{"id":5209652,"estado":"OPERATIVO","distrito":"SALAMANCA","barrio":"LISTA","direccion":"CALLE FRANCISCO SILVELA, 73"},"geometry":{"type":"Point","coordinates":[-3.676398,40.436201]}},{"type":"Feature","properties":{"id":5211482,"estado":"OPERATIVO","distrito":"HORTALEZA","barrio":"VALDEFUENTES","direccion":"AVENIDA NICETO ALCALA ZAMORA, 33"},"geometry":{"type":"Point","coordinates":[-3.646151,40.487418]}},{"type":"Feature","properties":{"id":5211484,"estado":"OPERATIVO","distrito":"HORTALEZA","barrio":"PINAR DEL REY","direccion":"CALLE MANIZALES, 15"},"geometry":{"type":"Point","coordinates":[-3.637255,40.473504]}},{"type":"Feature","properties":{"id":5211485,"estado":"OPERATIVO","distrito":"HORTALEZA","barrio":"PINAR DEL REY","direccion":"CALLE VALDETORRES DE JARAMA, 2"},"geometry":{"type":"Point","coordinates":[-3.647184,40.471727]}},{"type":"Feature","properties":{"id":5211506,"estado":"OPERATIVO","distrito":"HORTALEZA","barrio":"APOSTOL SANTIAGO","direccion":"CALLE SOMONTIN, 96"},"geometry":{"type":"Point","coordinates":[-3.659446,40.477159]}},{"type":"Feature","properties":{"id":5211515,"estado":"OPERATIVO","distrito":"HORTALEZA","barrio":"PIOVERA","direccion":"CALLE ANGEL CAVERO, 1"},"geometry":{"type":"Point","coordinates":[-3.650867,40.455273]}},{"type":"Feature","properties":{"id":5212100,"estado":"OPERATIVO","distrito":"TETUAN","barrio":"CUATRO CAMINOS","direccion":"GLORIETA CUATRO CAMINOS, 7"},"geometry":{"type":"Point","coordinates":[-3.703602,40.447266]}},{"type":"Feature","properties":{"id":5212696,"estado":"OPERATIVO","distrito":"LATINA","barrio":"LOS CARMENES","direccion":"AVENIDA ANGEL SANZ BRIZ, 4"},"geometry":{"type":"Point","coordinates":[-3.735264,40.400593]}},{"type":"Feature","properties":{"id":5212747,"estado":"OPERATIVO","distrito":"TETUAN","barrio":"BELLAS VISTAS","direccion":"CALLE TENERIFE, 29"},"geometry":{"type":"Point","coordinates":[-3.706401,40.451529]}},{"type":"Feature","properties":{"id":5212748,"estado":"OPERATIVO","distrito":"TETUAN","barrio":"ALMENARA","direccion":"CALLE LUIS ESTEBAN, 27"},"geometry":{"type":"Point","coordinates":[-3.690101,40.473292]}},{"type":"Feature","properties":{"id":5214770,"estado":"CERRADA_TEMPORALMENT","distrito":"VILLAVERDE","barrio":"VILLAVERDE ALTO - CASCO HISTORICO DE VILLAVERDE","direccion":"PASEO FERROVIARIOS, 2"},"geometry":{"type":"Point","coordinates":[-3.716162,40.34783]}},{"type":"Feature","properties":{"id":5216568,"estado":"CERRADA_TEMPORALMENT","distrito":"TETUAN","barrio":"VALDEACEDERAS","direccion":"CALLE CAPITAN BLANCO ARGIBAY, 3"},"geometry":{"type":"Point","coordinates":[-3.711011,40.468663]}},{"type":"Feature","properties":{"id":5219893,"estado":"OPERATIVO","distrito":"CHAMBERI","barrio":"ARAPILES","direccion":"CALLE GALILEO, 35"},"geometry":{"type":"Point","coordinates":[-3.711146,40.433511]}},{"type":"Feature","properties":{"id":5220270,"estado":"CERRADA_TEMPORALMENT","distrito":"USERA","barrio":"PRADOLONGO","direccion":"AVENIDA RAFAELA YBARRA, 85"},"geometry":{"type":"Point","coordinates":[-3.71172,40.375354]}},{"type":"Feature","properties":{"id":5220279,"estado":"CERRADA_TEMPORALMENT","distrito":"USERA","barrio":"PRADOLONGO","direccion":"CALLE CRISTO DE LA VICTORIA, 225"},"geometry":{"type":"Point","coordinates":[-3.706833,40.376391]}},{"type":"Feature","properties":{"id":5220281,"estado":"CERRADA_TEMPORALMENT","distrito":"USERA","barrio":"PRADOLONGO","direccion":"CALLE CRISTO DE LA VICTORIA, 199"},"geometry":{"type":"Point","coordinates":[-3.70507,40.37764]}},{"type":"Feature","properties":{"id":5229175,"estado":"FUERA_DE_SERVICIO","distrito":"PUENTE DE VALLECAS","barrio":"PALOMERAS SURESTE","direccion":"AVENIDA RAFAEL ALBERTI, 51"},"geometry":{"type":"Point","coordinates":[-3.645013,40.383374]}},{"type":"Feature","properties":{"id":5229238,"estado":"FUERA_DE_SERVICIO","distrito":"PUENTE DE VALLECAS","barrio":"PALOMERAS SURESTE","direccion":"CALLE CAMPO DE LA PALOMA, 22"},"geometry":{"type":"Point","coordinates":[-3.645282,40.384154]}},{"type":"Feature","properties":{"id":5229300,"estado":"FUERA_DE_SERVICIO","distrito":"PUENTE DE VALLECAS","barrio":"PALOMERAS SURESTE","direccion":"CALLE GERARDO DIEGO, 15"},"geometry":{"type":"Point","coordinates":[-3.644988,40.384599]}},{"type":"Feature","properties":{"id":5232822,"estado":"CERRADA_TEMPORALMENT","distrito":"VILLAVERDE","barrio":"BUTARQUE","direccion":"AVENIDA LOS ROSALES, 123"},"geometry":{"type":"Point","coordinates":[-3.678069,40.352962]}},{"type":"Feature","properties":{"id":5237487,"estado":"CERRADA_TEMPORALMENT","distrito":"BARAJAS","barrio":"ALAMEDA DE OSUNA","direccion":"AVENIDA LOGROÑO, 74"},"geometry":{"type":"Point","coordinates":[-3.586024,40.463948]}},{"type":"Feature","properties":{"id":5241774,"estado":"OPERATIVO","distrito":"VILLAVERDE","barrio":"LOS ROSALES","direccion":"CALLE AUGUSTOBRIGA, 13"},"geometry":{"type":"Point","coordinates":[-3.686191,40.355544]}},{"type":"Feature","properties":{"id":5242892,"estado":"OPERATIVO","distrito":"LATINA","barrio":"PUERTA DEL ANGEL","direccion":"PLAZA PATRIARCA EIJO Y GARAY, 2"},"geometry":{"type":"Point","coordinates":[-3.73738,40.407166]}},{"type":"Feature","properties":{"id":5249643,"estado":"OPERATIVO","distrito":"TETUAN","barrio":"ALMENARA","direccion":"CALLE PADRE RUBIO, 84"},"geometry":{"type":"Point","coordinates":[-3.697428,40.472294]}},{"type":"Feature","properties":{"id":5270041,"estado":"OPERATIVO","distrito":"HORTALEZA","barrio":"CANILLAS","direccion":"CALLE SILVANO, 157"},"geometry":{"type":"Point","coordinates":[-3.626623,40.462714]}},{"type":"Feature","properties":{"id":5270342,"estado":"CERRADA_TEMPORALMENT","distrito":"SAN BLAS-CANILLEJAS","barrio":"ROSAS","direccion":"AVENIDA LUIS ARAGONES, 2"},"geometry":{"type":"Point","coordinates":[-3.603351,40.437797]}},{"type":"Feature","properties":{"id":5272336,"estado":"OPERATIVO","distrito":"ARGANZUELA","barrio":"ACACIAS","direccion":"PASEO OLMOS, 24"},"geometry":{"type":"Point","coordinates":[-3.711166,40.403716]}},{"type":"Feature","properties":{"id":529386,"estado":"CERRADA_TEMPORALMENT","distrito":"HORTALEZA","barrio":"PINAR DEL REY","direccion":"CALLE DUQUESA DE CASTREJON, 17"},"geometry":{"type":"Point","coordinates":[-3.6602,40.463615]}},{"type":"Feature","properties":{"id":529389,"estado":"CERRADA_TEMPORALMENT","distrito":"TETUAN","barrio":"CUATRO CAMINOS","direccion":"AVENIDA GENERAL PERON, 4"},"geometry":{"type":"Point","coordinates":[-3.698862,40.45279]}},{"type":"Feature","properties":{"id":529393,"estado":"CERRADA_TEMPORALMENT","distrito":"TETUAN","barrio":"VALDEACEDERAS","direccion":"PASEO DIRECCION, 277"},"geometry":{"type":"Point","coordinates":[-3.706009,40.469626]}},{"type":"Feature","properties":{"id":529398,"estado":"CERRADA_TEMPORALMENT","distrito":"CENTRO","barrio":"JUSTICIA","direccion":"PLAZA VILLA DE PARIS, 1 D"},"geometry":{"type":"Point","coordinates":[-3.693752,40.425115]}},{"type":"Feature","properties":{"id":529399,"estado":"OPERATIVO","distrito":"CENTRO","barrio":"UNIVERSIDAD","direccion":"CALLE DOS DE MAYO, 1"},"geometry":{"type":"Point","coordinates":[-3.704404,40.426947]}},{"type":"Feature","properties":{"id":529400,"estado":"OPERATIVO","distrito":"CENTRO","barrio":"EMBAJADORES","direccion":"CALLE ARGANZUELA, 1"},"geometry":{"type":"Point","coordinates":[-3.710257,40.408848]}},{"type":"Feature","properties":{"id":529401,"estado":"OPERATIVO","distrito":"TETUAN","barrio":"VALDEACEDERAS","direccion":"CALLE FRAY JUNIPERO SERRA, 27"},"geometry":{"type":"Point","coordinates":[-3.700449,40.464279]}},{"type":"Feature","properties":{"id":529402,"estado":"CERRADA_TEMPORALMENT","distrito":"TETUAN","barrio":"VALDEACEDERAS","direccion":"CALLE VILLAAMIL, 90"},"geometry":{"type":"Point","coordinates":[-3.710034,40.466577]}},{"type":"Feature","properties":{"id":529406,"estado":"CERRADA_TEMPORALMENT","distrito":"TETUAN","barrio":"ALMENARA","direccion":"CALLE GENERAL PINTOS, 22 B"},"geometry":{"type":"Point","coordinates":[-3.693269,40.470751]}},{"type":"Feature","properties":{"id":529408,"estado":"CERRADA_TEMPORALMENT","distrito":"CENTRO","barrio":"PALACIO","direccion":"PASEO VIRGEN DEL PUERTO, 3 B"},"geometry":{"type":"Point","coordinates":[-3.720459,40.414988]}},{"type":"Feature","properties":{"id":529409,"estado":"CERRADA_TEMPORALMENT","distrito":"CENTRO","barrio":"EMBAJADORES","direccion":"CALLE CASINO, 3"},"geometry":{"type":"Point","coordinates":[-3.70523,40.406299]}},{"type":"Feature","properties":{"id":529410,"estado":"CERRADA_TEMPORALMENT","distrito":"TETUAN","barrio":"VALDEACEDERAS","direccion":"CALLE SINESIO DELGADO, 23"},"geometry":{"type":"Point","coordinates":[-3.709283,40.470544]}},{"type":"Feature","properties":{"id":529411,"estado":"OPERATIVO","distrito":"TETUAN","barrio":"VALDEACEDERAS","direccion":"CALLE SIERRA BULLONES, 5"},"geometry":{"type":"Point","coordinates":[-3.699122,40.465919]}},{"type":"Feature","properties":{"id":529412,"estado":"OPERATIVO","distrito":"CENTRO","barrio":"UNIVERSIDAD","direccion":"PLAZA CRISTINO MARTOS, 2"},"geometry":{"type":"Point","coordinates":[-3.712017,40.425646]}},{"type":"Feature","properties":{"id":529418,"estado":"OPERATIVO","distrito":"CENTRO","barrio":"PALACIO","direccion":"PLAZA ISABEL II, 8"},"geometry":{"type":"Point","coordinates":[-3.709142,40.418118]}},{"type":"Feature","properties":{"id":529419,"estado":"OPERATIVO","distrito":"TETUAN","barrio":"BERRUGUETE","direccion":"CALLE ALONSO NUÑEZ, 7"},"geometry":{"type":"Point","coordinates":[-3.707756,40.458548]}},{"type":"Feature","properties":{"id":529421,"estado":"OPERATIVO","distrito":"CENTRO","barrio":"JUSTICIA","direccion":"CALLE ORELLANA, 27"},"geometry":{"type":"Point","coordinates":[-3.692318,40.425422]}},{"type":"Feature","properties":{"id":529422,"estado":"OPERATIVO","distrito":"TETUAN","barrio":"BERRUGUETE","direccion":"CALLE BERRUGUETE, 63"},"geometry":{"type":"Point","coordinates":[-3.705076,40.45948]}},{"type":"Feature","properties":{"id":529426,"estado":"CERRADA_TEMPORALMENT","distrito":"CENTRO","barrio":"PALACIO","direccion":"PASEO VIRGEN DEL PUERTO, 4"},"geometry":{"type":"Point","coordinates":[-3.718126,40.415341]}},{"type":"Feature","properties":{"id":529428,"estado":"CERRADA_TEMPORALMENT","distrito":"TETUAN","barrio":"ALMENARA","direccion":"CALLE VIA LIMITE, 65"},"geometry":{"type":"Point","coordinates":[-3.6932,40.473606]}},{"type":"Feature","properties":{"id":529429,"estado":"CERRADA_TEMPORALMENT","distrito":"TETUAN","barrio":"VALDEACEDERAS","direccion":"CALLE SINESIO DELGADO, 23"},"geometry":{"type":"Point","coordinates":[-3.71046,40.47086]}},{"type":"Feature","properties":{"id":529431,"estado":"OPERATIVO","distrito":"TETUAN","barrio":"BERRUGUETE","direccion":"CALLE MARTINEZ, 15"},"geometry":{"type":"Point","coordinates":[-3.703287,40.458984]}},{"type":"Feature","properties":{"id":529432,"estado":"CERRADA_TEMPORALMENT","distrito":"CENTRO","barrio":"JUSTICIA","direccion":"PLAZA SALESAS, 1 B"},"geometry":{"type":"Point","coordinates":[-3.694603,40.424247]}},{"type":"Feature","properties":{"id":529433,"estado":"FUERA_DE_SERVICIO","distrito":"TETUAN","barrio":"BELLAS VISTAS","direccion":"CALLE MARIA PEDRAZA, 18"},"geometry":{"type":"Point","coordinates":[-3.709782,40.453303]}},{"type":"Feature","properties":{"id":529436,"estado":"CERRADA_TEMPORALMENT","distrito":"CENTRO","barrio":"PALACIO","direccion":"CALLE SEGOVIA, 30"},"geometry":{"type":"Point","coordinates":[-3.718928,40.414776]}},{"type":"Feature","properties":{"id":529437,"estado":"OPERATIVO","distrito":"CENTRO","barrio":"CORTES","direccion":"PASEO PRADO, 22"},"geometry":{"type":"Point","coordinates":[-3.693198,40.412724]}},{"type":"Feature","properties":{"id":529439,"estado":"OPERATIVO","distrito":"TETUAN","barrio":"BERRUGUETE","direccion":"CALLE BRAVO MURILLO, 239"},"geometry":{"type":"Point","coordinates":[-3.701296,40.457952]}},{"type":"Feature","properties":{"id":529440,"estado":"CERRADA_TEMPORALMENT","distrito":"TETUAN","barrio":"VALDEACEDERAS","direccion":"CALLE SIERRA BULLONES, 25"},"geometry":{"type":"Point","coordinates":[-3.698635,40.466641]}},{"type":"Feature","properties":{"id":529444,"estado":"OPERATIVO","distrito":"TETUAN","barrio":"VALDEACEDERAS","direccion":"CALLE ANTONIO LANZUELA, 41"},"geometry":{"type":"Point","coordinates":[-3.703449,40.467552]}},{"type":"Feature","properties":{"id":529445,"estado":"OPERATIVO","distrito":"TETUAN","barrio":"VALDEACEDERAS","direccion":"CALLE CAPITAN BLANCO ARGIBAY, 63"},"geometry":{"type":"Point","coordinates":[-3.701468,40.46613]}},{"type":"Feature","properties":{"id":529451,"estado":"OPERATIVO","distrito":"CENTRO","barrio":"UNIVERSIDAD","direccion":"PLAZA SAN ILDEFONSO, 7"},"geometry":{"type":"Point","coordinates":[-3.701813,40.424142]}},{"type":"Feature","properties":{"id":529452,"estado":"CERRADA_TEMPORALMENT","distrito":"CENTRO","barrio":"PALACIO","direccion":"CALLE ROSARIO, 23"},"geometry":{"type":"Point","coordinates":[-3.715345,40.409838]}},{"type":"Feature","properties":{"id":529456,"estado":"OPERATIVO","distrito":"TETUAN","barrio":"VALDEACEDERAS","direccion":"CALLE CAPITAN BLANCO ARGIBAY, 210"},"geometry":{"type":"Point","coordinates":[-3.709761,40.469935]}},{"type":"Feature","properties":{"id":5069030,"estado":"OPERATIVO","distrito":"ARGANZUELA","barrio":"ACACIAS","direccion":"PASEO JUAN ANTONIO VALLEJO-NAJERA BOTAS, 2"},"geometry":{"type":"Point","coordinates":[-3.699953,40.400919]}},{"type":"Feature","properties":{"id":5074610,"estado":"OPERATIVO","distrito":"CHAMARTIN","barrio":"PROSPERIDAD","direccion":"CALLE CLARA DEL REY, 61"},"geometry":{"type":"Point","coordinates":[-3.668115,40.446288]}},{"type":"Feature","properties":{"id":5074625,"estado":"CERRADA_TEMPORALMENT","distrito":"USERA","barrio":"PRADOLONGO","direccion":"CALLE DOCTOR TOLOSA LATOUR, 15"},"geometry":{"type":"Point","coordinates":[-3.704263,40.37231]}},{"type":"Feature","properties":{"id":5074629,"estado":"CERRADA_TEMPORALMENT","distrito":"USERA","barrio":"SAN FERMIN","direccion":"CALLE SILVINA, 35"},"geometry":{"type":"Point","coordinates":[-3.688994,40.365724]}},{"type":"Feature","properties":{"id":5074661,"estado":"CERRADA_TEMPORALMENT","distrito":"USERA","barrio":"ORCASUR","direccion":"AVENIDA ORCASUR, 53"},"geometry":{"type":"Point","coordinates":[-3.701386,40.36594]}},{"type":"Feature","properties":{"id":5104802,"estado":"OPERATIVO","distrito":"USERA","barrio":"ORCASUR","direccion":"CALLE TUYA, 3"},"geometry":{"type":"Point","coordinates":[-3.696065,40.366404]}},{"type":"Feature","properties":{"id":5106389,"estado":"CERRADA_TEMPORALMENT","distrito":"LATINA","barrio":"LUCERO","direccion":"CALLE VILLAMANIN, 18"},"geometry":{"type":"Point","coordinates":[-3.74986,40.407917]}},{"type":"Feature","properties":{"id":5106392,"estado":"CERRADA_TEMPORALMENT","distrito":"LATINA","barrio":"AGUILAS","direccion":"CALLE ANSELMO LORENZO, 17"},"geometry":{"type":"Point","coordinates":[-3.768878,40.38231]}},{"type":"Feature","properties":{"id":5106551,"estado":"CERRADA_TEMPORALMENT","distrito":"LATINA","barrio":"AGUILAS","direccion":"AVENIDA LAS AGUILAS, 72"},"geometry":{"type":"Point","coordinates":[-3.779438,40.381473]}},{"type":"Feature","properties":{"id":5106805,"estado":"CERRADA_TEMPORALMENT","distrito":"BARAJAS","barrio":"CORRALEJOS","direccion":"CALLE BAHIA DE SANTA POLA, 68"},"geometry":{"type":"Point","coordinates":[-3.593279,40.467421]}},{"type":"Feature","properties":{"id":529459,"estado":"OPERATIVO","distrito":"TETUAN","barrio":"CUATRO CAMINOS","direccion":"AVENIDA GENERAL PERON, 9 B"},"geometry":{"type":"Point","coordinates":[-3.698147,40.452867]}},{"type":"Feature","properties":{"id":529460,"estado":"OPERATIVO","distrito":"CENTRO","barrio":"PALACIO","direccion":"CALLE MORERIA, 14"},"geometry":{"type":"Point","coordinates":[-3.71488,40.412665]}},{"type":"Feature","properties":{"id":529463,"estado":"OPERATIVO","distrito":"TETUAN","barrio":"BERRUGUETE","direccion":"CALLE JUAN DEL RISCO, 50"},"geometry":{"type":"Point","coordinates":[-3.704309,40.459541]}},{"type":"Feature","properties":{"id":529465,"estado":"OPERATIVO","distrito":"TETUAN","barrio":"VALDEACEDERAS","direccion":"CALLE CANTUESO, 93 A"},"geometry":{"type":"Point","coordinates":[-3.703535,40.469021]}},{"type":"Feature","properties":{"id":529467,"estado":"CERRADA_TEMPORALMENT","distrito":"TETUAN","barrio":"CUATRO CAMINOS","direccion":"CALLE BRAVO MURILLO, 188"},"geometry":{"type":"Point","coordinates":[-3.702683,40.454584]}},{"type":"Feature","properties":{"id":529470,"estado":"CERRADA_TEMPORALMENT","distrito":"TETUAN","barrio":"VALDEACEDERAS","direccion":"CALLE BRAVO MURILLO, 315"},"geometry":{"type":"Point","coordinates":[-3.6969,40.463191]}},{"type":"Feature","properties":{"id":529474,"estado":"CERRADA_TEMPORALMENT","distrito":"TETUAN","barrio":"VALDEACEDERAS","direccion":"CALLE BRAVO MURILLO, 335"},"geometry":{"type":"Point","coordinates":[-3.695549,40.464442]}},{"type":"Feature","properties":{"id":529475,"estado":"CERRADA_TEMPORALMENT","distrito":"TETUAN","barrio":"CASTILLEJOS","direccion":"CALLE BRAVO MURILLO, 234"},"geometry":{"type":"Point","coordinates":[-3.700312,40.458629]}},{"type":"Feature","properties":{"id":529478,"estado":"CERRADA_TEMPORALMENT","distrito":"TETUAN","barrio":"CUATRO CAMINOS","direccion":"CALLE HERNANI, 18"},"geometry":{"type":"Point","coordinates":[-3.702254,40.44828]}},{"type":"Feature","properties":{"id":529481,"estado":"OPERATIVO","distrito":"CHAMBERI","barrio":"ALMAGRO","direccion":"PASEO CASTELLANA, 37"},"geometry":{"type":"Point","coordinates":[-3.688763,40.434226]}},{"type":"Feature","properties":{"id":529482,"estado":"OPERATIVO","distrito":"CHAMBERI","barrio":"ALMAGRO","direccion":"PASEO CASTELLANA, 11"},"geometry":{"type":"Point","coordinates":[-3.690042,40.427466]}},{"type":"Feature","properties":{"id":529483,"estado":"OPERATIVO","distrito":"CHAMBERI","barrio":"GAZTAMBIDE","direccion":"CALLE JOAQUIN MARIA LOPEZ, 48 A"},"geometry":{"type":"Point","coordinates":[-3.714745,40.437651]}},{"type":"Feature","properties":{"id":5106820,"estado":"CERRADA_TEMPORALMENT","distrito":"BARAJAS","barrio":"TIMON","direccion":"CALLE MISTRAL, 111"},"geometry":{"type":"Point","coordinates":[-3.592052,40.469252]}},{"type":"Feature","properties":{"id":5107502,"estado":"CERRADA_TEMPORALMENT","distrito":"CENTRO","barrio":"PALACIO","direccion":"CALLE GRAN VIA, 69"},"geometry":{"type":"Point","coordinates":[-3.710379,40.422959]}},{"type":"Feature","properties":{"id":5107503,"estado":"FUERA_DE_SERVICIO","distrito":"CENTRO","barrio":"CORTES","direccion":"CALLE CABALLERO DE GRACIA, 40"},"geometry":{"type":"Point","coordinates":[-3.697522,40.418924]}},{"type":"Feature","properties":{"id":5108205,"estado":"OPERATIVO","distrito":"MORATALAZ","barrio":"FONTARRON","direccion":"AVENIDA MORATALAZ, 54"},"geometry":{"type":"Point","coordinates":[-3.655571,40.406043]}},{"type":"Feature","properties":{"id":5110229,"estado":"OPERATIVO","distrito":"CENTRO","barrio":"CORTES","direccion":"CALLE HUERTAS, 71"},"geometry":{"type":"Point","coordinates":[-3.695385,40.413105]}},{"type":"Feature","properties":{"id":5124693,"estado":"CERRADA_TEMPORALMENT","distrito":"FUENCARRAL-EL PARDO","barrio":"VALVERDE","direccion":"PLAZA TRES OLIVOS, 26"},"geometry":{"type":"Point","coordinates":[-3.690187,40.501258]}},{"type":"Feature","properties":{"id":5125347,"estado":"OPERATIVO","distrito":"FUENCARRAL-EL PARDO","barrio":"VALVERDE","direccion":"CALLE ALONSO QUIJANO, 45"},"geometry":{"type":"Point","coordinates":[-3.688097,40.501881]}},{"type":"Feature","properties":{"id":5125348,"estado":"CERRADA_TEMPORALMENT","distrito":"FUENCARRAL-EL PARDO","barrio":"VALVERDE","direccion":"CALLE BERDUN, 2 D"},"geometry":{"type":"Point","coordinates":[-3.679094,40.507179]}},{"type":"Feature","properties":{"id":5125474,"estado":"OPERATIVO","distrito":"CENTRO","barrio":"CORTES","direccion":"PLAZA PLATERIA DE MARTINEZ, 3"},"geometry":{"type":"Point","coordinates":[-3.693865,40.412737]}},{"type":"Feature","properties":{"id":5125475,"estado":"OPERATIVO","distrito":"CENTRO","barrio":"EMBAJADORES","direccion":"CALLE TOLEDO, 40"},"geometry":{"type":"Point","coordinates":[-3.707601,40.41254]}},{"type":"Feature","properties":{"id":5154605,"estado":"OPERATIVO","distrito":"FUENCARRAL-EL PARDO","barrio":"VALVERDE","direccion":"PASEO ALAMEDILLAS, 6"},"geometry":{"type":"Point","coordinates":[-3.695718,40.498242]}},{"type":"Feature","properties":{"id":529486,"estado":"OPERATIVO","distrito":"CHAMBERI","barrio":"ARAPILES","direccion":"PLAZA CONDE DEL VALLE DE SUCHIL, 2"},"geometry":{"type":"Point","coordinates":[-3.707319,40.4303]}},{"type":"Feature","properties":{"id":529488,"estado":"CERRADA_TEMPORALMENT","distrito":"RETIRO","barrio":"ESTRELLA","direccion":"CALLE PEZ VOLADOR, 32"},"geometry":{"type":"Point","coordinates":[-3.664232,40.414736]}},{"type":"Feature","properties":{"id":529489,"estado":"FUERA_DE_SERVICIO","distrito":"CHAMBERI","barrio":"ALMAGRO","direccion":"PLAZA CHAMBERI, 10"},"geometry":{"type":"Point","coordinates":[-3.697264,40.432502]}},{"type":"Feature","properties":{"id":529493,"estado":"CERRADA_TEMPORALMENT","distrito":"MONCLOA-ARAVACA","barrio":"CASA DE CAMPO","direccion":"PASEO PINTOR ROSALES, 82"},"geometry":{"type":"Point","coordinates":[-3.725371,40.432531]}},{"type":"Feature","properties":{"id":529494,"estado":"OPERATIVO","distrito":"ARGANZUELA","barrio":"PALOS DE LA FRONTERA","direccion":"PLAZA LUCA DE TENA, 4"},"geometry":{"type":"Point","coordinates":[-3.693528,40.40206]}},{"type":"Feature","properties":{"id":529495,"estado":"CERRADA_TEMPORALMENT","distrito":"ARGANZUELA","barrio":"ACACIAS","direccion":"PLAZA PEÑUELAS, 3"},"geometry":{"type":"Point","coordinates":[-3.702649,40.40105]}},{"type":"Feature","properties":{"id":529496,"estado":"CERRADA_TEMPORALMENT","distrito":"ARGANZUELA","barrio":"IMPERIAL","direccion":"CALLE TOLEDO, 134 B"},"geometry":{"type":"Point","coordinates":[-3.712613,40.40461]}},{"type":"Feature","properties":{"id":529499,"estado":"OPERATIVO","distrito":"CHAMBERI","barrio":"RIOS ROSAS","direccion":"PLAZA SAN JUAN DE LA CRUZ, 3 C"},"geometry":{"type":"Point","coordinates":[-3.69423,40.441072]}},{"type":"Feature","properties":{"id":529502,"estado":"OPERATIVO","distrito":"ARGANZUELA","barrio":"DELICIAS","direccion":"PLAZA AMANECER EN MENDEZ ALVARO, 7"},"geometry":{"type":"Point","coordinates":[-3.684876,40.399242]}},{"type":"Feature","properties":{"id":529505,"estado":"OPERATIVO","distrito":"ARGANZUELA","barrio":"ACACIAS","direccion":"CALLE ARGANDA, 10 B"},"geometry":{"type":"Point","coordinates":[-3.707655,40.399358]}},{"type":"Feature","properties":{"id":529506,"estado":"OPERATIVO","distrito":"ARGANZUELA","barrio":"CHOPERA","direccion":"CALLE BENITO VALDERAS, 2"},"geometry":{"type":"Point","coordinates":[-3.696825,40.394271]}},{"type":"Feature","properties":{"id":529508,"estado":"CERRADA_TEMPORALMENT","distrito":"ARGANZUELA","barrio":"DELICIAS","direccion":"CALLE JUAN DE MARIANA, 8 D"},"geometry":{"type":"Point","coordinates":[-3.687395,40.398998]}},{"type":"Feature","properties":{"id":529512,"estado":"CERRADA_TEMPORALMENT","distrito":"ARGANZUELA","barrio":"LEGAZPI","direccion":"CALLE PUERTO DE LA CRUZ VERDE, 23"},"geometry":{"type":"Point","coordinates":[-3.684691,40.386075]}},{"type":"Feature","properties":{"id":529513,"estado":"CERRADA_TEMPORALMENT","distrito":"RETIRO","barrio":"ESTRELLA","direccion":"CALLE JUAN ESPLANDIU, 11 B"},"geometry":{"type":"Point","coordinates":[-3.664949,40.418756]}},{"type":"Feature","properties":{"id":529514,"estado":"CERRADA_TEMPORALMENT","distrito":"ARGANZUELA","barrio":"LEGAZPI","direccion":"CALLE PUERTO DE BEJAR, 28"},"geometry":{"type":"Point","coordinates":[-3.684626,40.38769]}},{"type":"Feature","properties":{"id":5154615,"estado":"CERRADA_TEMPORALMENT","distrito":"FUENCARRAL-EL PARDO","barrio":"VALVERDE","direccion":"CALLE VILLAVA, 15"},"geometry":{"type":"Point","coordinates":[-3.676285,40.500742]}},{"type":"Feature","properties":{"id":5154625,"estado":"CERRADA_TEMPORALMENT","distrito":"FUENCARRAL-EL PARDO","barrio":"PEÑAGRANDE","direccion":"CALLE JOAQUIN LORENZO, 5 B"},"geometry":{"type":"Point","coordinates":[-3.721426,40.471914]}},{"type":"Feature","properties":{"id":5176278,"estado":"OPERATIVO","distrito":"CARABANCHEL","barrio":"OPAÑEL","direccion":"GLORIETA VALLE DE ORO, 4"},"geometry":{"type":"Point","coordinates":[-3.730781,40.388333]}},{"type":"Feature","properties":{"id":5176422,"estado":"OPERATIVO","distrito":"CENTRO","barrio":"SOL","direccion":"CALLE MAYOR, 32"},"geometry":{"type":"Point","coordinates":[-3.707823,40.416188]}},{"type":"Feature","properties":{"id":5176430,"estado":"OPERATIVO","distrito":"CENTRO","barrio":"CORTES","direccion":"CALLE SAN PEDRO, 20"},"geometry":{"type":"Point","coordinates":[-3.694842,40.411496]}},{"type":"Feature","properties":{"id":5176479,"estado":"CERRADA_TEMPORALMENT","distrito":"VILLA DE VALLECAS","barrio":"ENSANCHE DE VALLECAS","direccion":"AVENIDA CERRO MILANO, 27"},"geometry":{"type":"Point","coordinates":[-3.606336,40.363569]}},{"type":"Feature","properties":{"id":5176482,"estado":"OPERATIVO","distrito":"VILLA DE VALLECAS","barrio":"SANTA EUGENIA","direccion":"CAMINO VASARES, 4"},"geometry":{"type":"Point","coordinates":[-3.617448,40.383345]}},{"type":"Feature","properties":{"id":5180425,"estado":"OPERATIVO","distrito":"MONCLOA-ARAVACA","barrio":"CIUDAD UNIVERSITARIA","direccion":"CALLE VALLS FERRERA, 5"},"geometry":{"type":"Point","coordinates":[-3.71579,40.454163]}},{"type":"Feature","properties":{"id":5188213,"estado":"CERRADA_TEMPORALMENT","distrito":"MONCLOA-ARAVACA","barrio":"VALDEMARIN","direccion":"AVENIDA VALDEMARIN, 75 C"},"geometry":{"type":"Point","coordinates":[-3.77951,40.469974]}},{"type":"Feature","properties":{"id":5188216,"estado":"CERRADA_TEMPORALMENT","distrito":"MONCLOA-ARAVACA","barrio":"VALDEMARIN","direccion":"CALLE ARGENTONA, 23"},"geometry":{"type":"Point","coordinates":[-3.763917,40.464913]}},{"type":"Feature","properties":{"id":5188218,"estado":"CERRADA_TEMPORALMENT","distrito":"MONCLOA-ARAVACA","barrio":"EL PLANTIO","direccion":"AVENIDA VICTORIA, 106"},"geometry":{"type":"Point","coordinates":[-3.830822,40.472897]}},{"type":"Feature","properties":{"id":5188852,"estado":"OPERATIVO","distrito":"RETIRO","barrio":"ADELFAS","direccion":"CALLE BARRILERO, 2 B"},"geometry":{"type":"Point","coordinates":[-3.673656,40.397771]}},{"type":"Feature","properties":{"id":5191204,"estado":"OPERATIVO","distrito":"RETIRO","barrio":"ESTRELLA","direccion":"PASAJE LINCE, 1"},"geometry":{"type":"Point","coordinates":[-3.667988,40.408864]}},{"type":"Feature","properties":{"id":5191206,"estado":"OPERATIVO","distrito":"RETIRO","barrio":"NIÑO JESUS","direccion":"CALLE DOCE DE OCTUBRE, 30"},"geometry":{"type":"Point","coordinates":[-3.673303,40.416053]}},{"type":"Feature","properties":{"id":5191218,"estado":"OPERATIVO","distrito":"SAN BLAS-CANILLEJAS","barrio":"CANILLEJAS","direccion":"CALLE NICOLASA GOMEZ, 9"},"geometry":{"type":"Point","coordinates":[-3.614902,40.444086]}},{"type":"Feature","properties":{"id":529515,"estado":"CERRADA_TEMPORALMENT","distrito":"ARGANZUELA","barrio":"ACACIAS","direccion":"CALLE MORATINES, 27"},"geometry":{"type":"Point","coordinates":[-3.704504,40.401788]}},{"type":"Feature","properties":{"id":529516,"estado":"CERRADA_TEMPORALMENT","distrito":"RETIRO","barrio":"ESTRELLA","direccion":"CALLE JUAN ESPLANDIU, 8"},"geometry":{"type":"Point","coordinates":[-3.661387,40.417078]}},{"type":"Feature","properties":{"id":529518,"estado":"CERRADA_TEMPORALMENT","distrito":"ARGANZUELA","barrio":"ACACIAS","direccion":"CALLE TOLEDO, 127"},"geometry":{"type":"Point","coordinates":[-3.711889,40.406164]}},{"type":"Feature","properties":{"id":529521,"estado":"OPERATIVO","distrito":"CHAMBERI","barrio":"ALMAGRO","direccion":"PASEO CASTELLANA, 19"},"geometry":{"type":"Point","coordinates":[-3.689699,40.428773]}},{"type":"Feature","properties":{"id":529525,"estado":"CERRADA_TEMPORALMENT","distrito":"ARGANZUELA","barrio":"LEGAZPI","direccion":"AVENIDA PLANETARIO, 14"},"geometry":{"type":"Point","coordinates":[-3.683389,40.39271]}},{"type":"Feature","properties":{"id":529526,"estado":"CERRADA_TEMPORALMENT","distrito":"ARGANZUELA","barrio":"LEGAZPI","direccion":"AVENIDA PLANETARIO, 16"},"geometry":{"type":"Point","coordinates":[-3.685721,40.392223]}},{"type":"Feature","properties":{"id":529528,"estado":"FUERA_DE_SERVICIO","distrito":"CHAMBERI","barrio":"VALLEHERMOSO","direccion":"PLAZA TENIENTE DE ALCALDE PEREZ PILLADO, 6"},"geometry":{"type":"Point","coordinates":[-3.706996,40.440456]}},{"type":"Feature","properties":{"id":529530,"estado":"OPERATIVO","distrito":"ARGANZUELA","barrio":"ACACIAS","direccion":"PASEO YESERIAS, 17"},"geometry":{"type":"Point","coordinates":[-3.710712,40.399398]}},{"type":"Feature","properties":{"id":529531,"estado":"CERRADA_TEMPORALMENT","distrito":"ARGANZUELA","barrio":"PALOS DE LA FRONTERA","direccion":"CALLE CANARIAS, 28"},"geometry":{"type":"Point","coordinates":[-3.695038,40.402201]}},{"type":"Feature","properties":{"id":529535,"estado":"CERRADA_TEMPORALMENT","distrito":"RETIRO","barrio":"ADELFAS","direccion":"CALLE NUEVO BAZTAN, 6"},"geometry":{"type":"Point","coordinates":[-3.668011,40.402896]}},{"type":"Feature","properties":{"id":529536,"estado":"OPERATIVO","distrito":"ARGANZUELA","barrio":"ACACIAS","direccion":"CALLE CONCEJAL BENITO MARTIN LOZANO, 9"},"geometry":{"type":"Point","coordinates":[-3.709026,40.405422]}},{"type":"Feature","properties":{"id":529540,"estado":"OPERATIVO","distrito":"ARGANZUELA","barrio":"ACACIAS","direccion":"CALLE ARGANDA, 40"},"geometry":{"type":"Point","coordinates":[-3.705163,40.4]}},{"type":"Feature","properties":{"id":529542,"estado":"OPERATIVO","distrito":"ARGANZUELA","barrio":"ATOCHA","direccion":"CALLE TEJO, 9"},"geometry":{"type":"Point","coordinates":[-3.678652,40.396653]}},{"type":"Feature","properties":{"id":529543,"estado":"OPERATIVO","distrito":"CHAMBERI","barrio":"TRAFALGAR","direccion":"CALLE GARCIA DE PAREDES, 21"},"geometry":{"type":"Point","coordinates":[-3.700912,40.436911]}},{"type":"Feature","properties":{"id":529544,"estado":"OPERATIVO","distrito":"CHAMBERI","barrio":"TRAFALGAR","direccion":"PLAZA OLAVIDE, 7"},"geometry":{"type":"Point","coordinates":[-3.701379,40.433127]}},{"type":"Feature","properties":{"id":5191220,"estado":"CERRADA_TEMPORALMENT","distrito":"SAN BLAS-CANILLEJAS","barrio":"EL SALVADOR","direccion":"CALLE ALCALA, 552"},"geometry":{"type":"Point","coordinates":[-3.616361,40.444173]}},{"type":"Feature","properties":{"id":5191221,"estado":"CERRADA_TEMPORALMENT","distrito":"SAN BLAS-CANILLEJAS","barrio":"CANILLEJAS","direccion":"CALLE GONZALO TORRENTE BALLESTER, 2"},"geometry":{"type":"Point","coordinates":[-3.607194,40.446892]}},{"type":"Feature","properties":{"id":5191236,"estado":"CERRADA_TEMPORALMENT","distrito":"SAN BLAS-CANILLEJAS","barrio":"ROSAS","direccion":"CALLE MEQUINENZA, 14"},"geometry":{"type":"Point","coordinates":[-3.604985,40.448458]}},{"type":"Feature","properties":{"id":5192331,"estado":"OPERATIVO","distrito":"SAN BLAS-CANILLEJAS","barrio":"EL SALVADOR","direccion":"CALLE TELEMACO, 2"},"geometry":{"type":"Point","coordinates":[-3.645899,40.447696]}},{"type":"Feature","properties":{"id":5192404,"estado":"OPERATIVO","distrito":"SAN BLAS-CANILLEJAS","barrio":"ARCOS","direccion":"CALLE CONSERVEROS, 17"},"geometry":{"type":"Point","coordinates":[-3.617844,40.425653]}},{"type":"Feature","properties":{"id":5195307,"estado":"OPERATIVO","distrito":"CHAMBERI","barrio":"GAZTAMBIDE","direccion":"CALLE BLASCO DE GARAY, 31"},"geometry":{"type":"Point","coordinates":[-3.711753,40.433102]}},{"type":"Feature","properties":{"id":5195511,"estado":"OPERATIVO","distrito":"CHAMBERI","barrio":"ARAPILES","direccion":"GLORIETA QUEVEDO, 6"},"geometry":{"type":"Point","coordinates":[-3.704468,40.433957]}},{"type":"Feature","properties":{"id":5195524,"estado":"OPERATIVO","distrito":"CHAMBERI","barrio":"TRAFALGAR","direccion":"GLORIETA PINTOR SOROLLA, 1"},"geometry":{"type":"Point","coordinates":[-3.698771,40.434683]}},{"type":"Feature","properties":{"id":5195826,"estado":"OPERATIVO","distrito":"CHAMBERI","barrio":"ALMAGRO","direccion":"GLORIETA RUBEN DARIO, 5"},"geometry":{"type":"Point","coordinates":[-3.6913,40.432686]}},{"type":"Feature","properties":{"id":5195834,"estado":"OPERATIVO","distrito":"CHAMBERI","barrio":"RIOS ROSAS","direccion":"CALLE BRETON DE LOS HERREROS, 46"},"geometry":{"type":"Point","coordinates":[-3.694523,40.439328]}},{"type":"Feature","properties":{"id":5202139,"estado":"FUERA_DE_SERVICIO","distrito":"CENTRO","barrio":"EMBAJADORES","direccion":"CALLE DOCTOR MATA, 2"},"geometry":{"type":"Point","coordinates":[-3.694449,40.408913]}},{"type":"Feature","properties":{"id":5205390,"estado":"OPERATIVO","distrito":"SAN BLAS-CANILLEJAS","barrio":"SIMANCAS","direccion":"CALLE EMILIO MUÑOZ, 57"},"geometry":{"type":"Point","coordinates":[-3.622895,40.434329]}},{"type":"Feature","properties":{"id":5205477,"estado":"OPERATIVO","distrito":"CENTRO","barrio":"EMBAJADORES","direccion":"PLAZA CAMPILLO DEL MUNDO NUEVO, 3 B"},"geometry":{"type":"Point","coordinates":[-3.70853,40.406245]}},{"type":"Feature","properties":{"id":5205478,"estado":"CERRADA_TEMPORALMENT","distrito":"CENTRO","barrio":"PALACIO","direccion":"CALLE CALATRAVA, 37"},"geometry":{"type":"Point","coordinates":[-3.713274,40.40973]}},{"type":"Feature","properties":{"id":5205479,"estado":"OPERATIVO","distrito":"CENTRO","barrio":"PALACIO","direccion":"PLAZA SAN FRANCISCO, 5"},"geometry":{"type":"Point","coordinates":[-3.714186,40.410816]}},{"type":"Feature","properties":{"id":529547,"estado":"CERRADA_TEMPORALMENT","distrito":"ARGANZUELA","barrio":"ACACIAS","direccion":"PASEO JUAN ANTONIO VALLEJO-NAJERA BOTAS, 15"},"geometry":{"type":"Point","coordinates":[-3.705287,40.401074]}},{"type":"Feature","properties":{"id":529549,"estado":"FUERA_DE_SERVICIO","distrito":"ARGANZUELA","barrio":"LEGAZPI","direccion":"CALLE TITAN, 15"},"geometry":{"type":"Point","coordinates":[-3.683491,40.38706]}},{"type":"Feature","properties":{"id":529551,"estado":"CERRADA_TEMPORALMENT","distrito":"RETIRO","barrio":"NIÑO JESUS","direccion":"CALLE JUAN DE URBIETA, 52"},"geometry":{"type":"Point","coordinates":[-3.674323,40.407651]}},{"type":"Feature","properties":{"id":529552,"estado":"CERRADA_TEMPORALMENT","distrito":"RETIRO","barrio":"PACIFICO","direccion":"CALLE TELLEZ, 31"},"geometry":{"type":"Point","coordinates":[-3.678606,40.400983]}},{"type":"Feature","properties":{"id":529555,"estado":"OPERATIVO","distrito":"RETIRO","barrio":"ESTRELLA","direccion":"CALLE SALIENTE, 12"},"geometry":{"type":"Point","coordinates":[-3.66699,40.418797]}},{"type":"Feature","properties":{"id":529556,"estado":"FUERA_DE_SERVICIO","distrito":"RETIRO","barrio":"NIÑO JESUS","direccion":"CALLE ANUNCIACION, 8"},"geometry":{"type":"Point","coordinates":[-3.675711,40.41215]}},{"type":"Feature","properties":{"id":529558,"estado":"FUERA_DE_SERVICIO","distrito":"RETIRO","barrio":"PACIFICO","direccion":"PASEO INFANTA ISABEL, 4"},"geometry":{"type":"Point","coordinates":[-3.686024,40.406126]}},{"type":"Feature","properties":{"id":529560,"estado":"FUERA_DE_SERVICIO","distrito":"RETIRO","barrio":"ADELFAS","direccion":"CALLE FEDERICO MORENO TORROBA, 3"},"geometry":{"type":"Point","coordinates":[-3.667028,40.405951]}},{"type":"Feature","properties":{"id":529562,"estado":"OPERATIVO","distrito":"RETIRO","barrio":"IBIZA","direccion":"CALLE IBIZA, 18"},"geometry":{"type":"Point","coordinates":[-3.676468,40.418252]}},{"type":"Feature","properties":{"id":529563,"estado":"OPERATIVO","distrito":"RETIRO","barrio":"IBIZA","direccion":"CALLE IBIZA, 58"},"geometry":{"type":"Point","coordinates":[-3.671588,40.418048]}},{"type":"Feature","properties":{"id":529564,"estado":"OPERATIVO","distrito":"RETIRO","barrio":"NIÑO JESUS","direccion":"CALLE ALCALDE SAINZ DE BARANDA, 66"},"geometry":{"type":"Point","coordinates":[-3.669611,40.416524]}},{"type":"Feature","properties":{"id":529567,"estado":"CERRADA_TEMPORALMENT","distrito":"RETIRO","barrio":"IBIZA","direccion":"CALLE ALCALDE SAINZ DE BARANDA, 18"},"geometry":{"type":"Point","coordinates":[-3.676273,40.416901]}},{"type":"Feature","properties":{"id":529569,"estado":"OPERATIVO","distrito":"SALAMANCA","barrio":"GUINDALERA","direccion":"AVENIDA BRASILIA, 2"},"geometry":{"type":"Point","coordinates":[-3.660502,40.437247]}},{"type":"Feature","properties":{"id":529572,"estado":"CERRADA_TEMPORALMENT","distrito":"SALAMANCA","barrio":"GUINDALERA","direccion":"AVENIDA BRASILIA, 4"},"geometry":{"type":"Point","coordinates":[-3.660117,40.439484]}},{"type":"Feature","properties":{"id":529573,"estado":"OPERATIVO","distrito":"SALAMANCA","barrio":"LISTA","direccion":"CALLE PRINCIPE DE VERGARA, 68 B"},"geometry":{"type":"Point","coordinates":[-3.678675,40.433329]}},{"type":"Feature","properties":{"id":529574,"estado":"CERRADA_TEMPORALMENT","distrito":"SALAMANCA","barrio":"GUINDALERA","direccion":"AVENIDA BRASILIA, 4"},"geometry":{"type":"Point","coordinates":[-3.660304,40.440126]}},{"type":"Feature","properties":{"id":529577,"estado":"FUERA_DE_SERVICIO","distrito":"SALAMANCA","barrio":"GUINDALERA","direccion":"CALLE DOCTOR GOMEZ ULLA, 11 B"},"geometry":{"type":"Point","coordinates":[-3.668006,40.430472]}},{"type":"Feature","properties":{"id":529578,"estado":"OPERATIVO","distrito":"RETIRO","barrio":"LOS JERONIMOS","direccion":"PLAZA MURILLO, 2"},"geometry":{"type":"Point","coordinates":[-3.691663,40.412539]}},{"type":"Feature","properties":{"id":529579,"estado":"CERRADA_TEMPORALMENT","distrito":"SALAMANCA","barrio":"FUENTE DEL BERRO","direccion":"PLAZA AMERICA ESPAÑOLA, 5"},"geometry":{"type":"Point","coordinates":[-3.661999,40.429342]}},{"type":"Feature","properties":{"id":529581,"estado":"OPERATIVO","distrito":"SALAMANCA","barrio":"FUENTE DEL BERRO","direccion":"CALLE LOS PEÑASCALES, 7"},"geometry":{"type":"Point","coordinates":[-3.667228,40.423909]}},{"type":"Feature","properties":{"id":5205480,"estado":"CERRADA_TEMPORALMENT","distrito":"CENTRO","barrio":"PALACIO","direccion":"PASEO VIRGEN DEL PUERTO, 1"},"geometry":{"type":"Point","coordinates":[-3.719911,40.419604]}},{"type":"Feature","properties":{"id":5205483,"estado":"CERRADA_TEMPORALMENT","distrito":"CIUDAD LINEAL","barrio":"VENTAS","direccion":"AVENIDA MARQUES DE CORBERA, 2"},"geometry":{"type":"Point","coordinates":[-3.657098,40.421721]}},{"type":"Feature","properties":{"id":5205485,"estado":"OPERATIVO","distrito":"CIUDAD LINEAL","barrio":"VENTAS","direccion":"CALLE SAN EMILIO, 39"},"geometry":{"type":"Point","coordinates":[-3.659213,40.426721]}},{"type":"Feature","properties":{"id":5205486,"estado":"CERRADA_TEMPORALMENT","distrito":"CIUDAD LINEAL","barrio":"PUEBLO NUEVO","direccion":"CALLE ARRIAGA, 73"},"geometry":{"type":"Point","coordinates":[-3.640076,40.424028]}},{"type":"Feature","properties":{"id":5205487,"estado":"OPERATIVO","distrito":"CIUDAD LINEAL","barrio":"PUEBLO NUEVO","direccion":"CALLE JOSE ARCONES GIL, 58"},"geometry":{"type":"Point","coordinates":[-3.636794,40.43233]}},{"type":"Feature","properties":{"id":5209645,"estado":"OPERATIVO","distrito":"SALAMANCA","barrio":"GUINDALERA","direccion":"CALLE FRANCISCO SILVELA, 12"},"geometry":{"type":"Point","coordinates":[-3.670418,40.430441]}},{"type":"Feature","properties":{"id":5209646,"estado":"OPERATIVO","distrito":"SALAMANCA","barrio":"GUINDALERA","direccion":"CALLE BRESCIA, 21"},"geometry":{"type":"Point","coordinates":[-3.661572,40.436667]}},{"type":"Feature","properties":{"id":5209651,"estado":"OPERATIVO","distrito":"SALAMANCA","barrio":"GUINDALERA","direccion":"CALLE FRANCISCO SILVELA, 52 B"},"geometry":{"type":"Point","coordinates":[-3.674242,40.434618]}},{"type":"Feature","properties":{"id":5211266,"estado":"FUERA_DE_SERVICIO","distrito":"SALAMANCA","barrio":"GUINDALERA","direccion":"CALLE LA POVEDA, 1"},"geometry":{"type":"Point","coordinates":[-3.666067,40.439087]}},{"type":"Feature","properties":{"id":5211481,"estado":"OPERATIVO","distrito":"SALAMANCA","barrio":"GUINDALERA","direccion":"AVENIDA BAVIERA, 20"},"geometry":{"type":"Point","coordinates":[-3.661598,40.442976]}},{"type":"Feature","properties":{"id":529585,"estado":"OPERATIVO","distrito":"CHAMARTIN","barrio":"CIUDAD JARDIN","direccion":"CALLE PRADILLO, 23"},"geometry":{"type":"Point","coordinates":[-3.672639,40.448987]}},{"type":"Feature","properties":{"id":529586,"estado":"OPERATIVO","distrito":"CHAMARTIN","barrio":"CIUDAD JARDIN","direccion":"CALLE MARCENADO, 51"},"geometry":{"type":"Point","coordinates":[-3.67554,40.450154]}},{"type":"Feature","properties":{"id":529588,"estado":"FUERA_DE_SERVICIO","distrito":"SALAMANCA","barrio":"GOYA","direccion":"CALLE ANTONIA MERCE, 5 B"},"geometry":{"type":"Point","coordinates":[-3.673297,40.424232]}},{"type":"Feature","properties":{"id":529590,"estado":"OPERATIVO","distrito":"CHAMARTIN","barrio":"HISPANOAMERICA","direccion":"CALLE COLOMBIA, 59"},"geometry":{"type":"Point","coordinates":[-3.668905,40.458222]}},{"type":"Feature","properties":{"id":529591,"estado":"OPERATIVO","distrito":"CHAMARTIN","barrio":"NUEVA ESPAÑA","direccion":"PASEO CASTELLANA, 180"},"geometry":{"type":"Point","coordinates":[-3.689535,40.461237]}},{"type":"Feature","properties":{"id":5211483,"estado":"CERRADA_TEMPORALMENT","distrito":"HORTALEZA","barrio":"VALDEFUENTES","direccion":"CALLE MARIA MOLINER, 6"},"geometry":{"type":"Point","coordinates":[-3.629786,40.476488]}},{"type":"Feature","properties":{"id":5212756,"estado":"OPERATIVO","distrito":"TETUAN","barrio":"BELLAS VISTAS","direccion":"CALLE FRANCOS RODRIGUEZ, 51"},"geometry":{"type":"Point","coordinates":[-3.708757,40.456754]}},{"type":"Feature","properties":{"id":5212760,"estado":"OPERATIVO","distrito":"TETUAN","barrio":"BELLAS VISTAS","direccion":"CALLE FRANCOS RODRIGUEZ, 67"},"geometry":{"type":"Point","coordinates":[-3.710381,40.457411]}},{"type":"Feature","properties":{"id":5214439,"estado":"CERRADA_TEMPORALMENT","distrito":"HORTALEZA","barrio":"PIOVERA","direccion":"AVENIDA CARONDELET, 37"},"geometry":{"type":"Point","coordinates":[-3.63804,40.449285]}},{"type":"Feature","properties":{"id":5216163,"estado":"OPERATIVO","distrito":"VICALVARO","barrio":"CASCO HISTORICO DE VICALVARO","direccion":"CALLE CASALARREINA, 32"},"geometry":{"type":"Point","coordinates":[-3.615081,40.408269]}},{"type":"Feature","properties":{"id":5216216,"estado":"OPERATIVO","distrito":"VICALVARO","barrio":"CASCO HISTORICO DE VICALVARO","direccion":"CALLE SAN CIPRIANO, 70"},"geometry":{"type":"Point","coordinates":[-3.601345,40.403685]}},{"type":"Feature","properties":{"id":5216235,"estado":"FUERA_DE_SERVICIO","distrito":"VICALVARO","barrio":"VALDERRIVAS","direccion":"CALLE MINERVA, 157"},"geometry":{"type":"Point","coordinates":[-3.606341,40.393797]}},{"type":"Feature","properties":{"id":5219912,"estado":"OPERATIVO","distrito":"CHAMBERI","barrio":"ARAPILES","direccion":"CALLE GALILEO, 35"},"geometry":{"type":"Point","coordinates":[-3.71054,40.433412]}},{"type":"Feature","properties":{"id":5220275,"estado":"CERRADA_TEMPORALMENT","distrito":"USERA","barrio":"PRADOLONGO","direccion":"CALLE CRISTO DE LA VICTORIA, 245"},"geometry":{"type":"Point","coordinates":[-3.708629,40.377502]}},{"type":"Feature","properties":{"id":5220283,"estado":"CERRADA_TEMPORALMENT","distrito":"USERA","barrio":"PRADOLONGO","direccion":"CALLE DOCTOR TOLOSA LATOUR, 14 B"},"geometry":{"type":"Point","coordinates":[-3.702904,40.376119]}},{"type":"Feature","properties":{"id":5220287,"estado":"CERRADA_TEMPORALMENT","distrito":"USERA","barrio":"PRADOLONGO","direccion":"AVENIDA POBLADOS, 167"},"geometry":{"type":"Point","coordinates":[-3.70755,40.372998]}},{"type":"Feature","properties":{"id":5228637,"estado":"CERRADA_TEMPORALMENT","distrito":"PUENTE DE VALLECAS","barrio":"PALOMERAS SURESTE","direccion":"AVENIDA RAFAEL ALBERTI, 38"},"geometry":{"type":"Point","coordinates":[-3.643616,40.383614]}},{"type":"Feature","properties":{"id":5231482,"estado":"OPERATIVO","distrito":"VILLA DE VALLECAS","barrio":"ENSANCHE DE VALLECAS","direccion":"CALLE CAÑADA DEL SANTISIMO, 45"},"geometry":{"type":"Point","coordinates":[-3.599633,40.362704]}},{"type":"Feature","properties":{"id":5232821,"estado":"CERRADA_TEMPORALMENT","distrito":"VILLAVERDE","barrio":"ANGELES","direccion":"CALLE EL LUCERO DEL ALBA, 4"},"geometry":{"type":"Point","coordinates":[-3.700653,40.359384]}},{"type":"Feature","properties":{"id":5241775,"estado":"CERRADA_TEMPORALMENT","distrito":"VILLAVERDE","barrio":"LOS ROSALES","direccion":"CALLE PILAR LORENGAR, 19"},"geometry":{"type":"Point","coordinates":[-3.685043,40.354126]}},{"type":"Feature","properties":{"id":529597,"estado":"OPERATIVO","distrito":"CHAMARTIN","barrio":"EL VISO","direccion":"CALLE DUQUE DE SEVILLA, 15"},"geometry":{"type":"Point","coordinates":[-3.68074,40.442731]}},{"type":"Feature","properties":{"id":529599,"estado":"OPERATIVO","distrito":"CHAMARTIN","barrio":"CIUDAD JARDIN","direccion":"CALLE PRADILLO, 6"},"geometry":{"type":"Point","coordinates":[-3.675731,40.448356]}},{"type":"Feature","properties":{"id":529601,"estado":"OPERATIVO","distrito":"CHAMARTIN","barrio":"CIUDAD JARDIN","direccion":"CALLE NIEREMBERG, 8"},"geometry":{"type":"Point","coordinates":[-3.671585,40.447438]}},{"type":"Feature","properties":{"id":529602,"estado":"OPERATIVO","distrito":"CHAMARTIN","barrio":"PROSPERIDAD","direccion":"CALLE SANTA HORTENSIA, 34"},"geometry":{"type":"Point","coordinates":[-3.664894,40.443827]}},{"type":"Feature","properties":{"id":529607,"estado":"OPERATIVO","distrito":"CHAMARTIN","barrio":"HISPANOAMERICA","direccion":"CALLE POTOSI, 6"},"geometry":{"type":"Point","coordinates":[-3.679389,40.456717]}},{"type":"Feature","properties":{"id":529609,"estado":"OPERATIVO","distrito":"CHAMARTIN","barrio":"NUEVA ESPAÑA","direccion":"CALLE DRACENA, 23"},"geometry":{"type":"Point","coordinates":[-3.670666,40.463553]}},{"type":"Feature","properties":{"id":5242891,"estado":"OPERATIVO","distrito":"VILLAVERDE","barrio":"VILLAVERDE ALTO - CASCO HISTORICO DE VILLAVERDE","direccion":"CALLE VILLASTAR, 6"},"geometry":{"type":"Point","coordinates":[-3.711365,40.344209]}},{"type":"Feature","properties":{"id":5242894,"estado":"CERRADA_TEMPORALMENT","distrito":"VILLAVERDE","barrio":"VILLAVERDE ALTO - CASCO HISTORICO DE VILLAVERDE","direccion":"CALLE TRANSVERSAL SEXTA, 18"},"geometry":{"type":"Point","coordinates":[-3.699219,40.334182]}},{"type":"Feature","properties":{"id":5249159,"estado":"CERRADA_TEMPORALMENT","distrito":"FUENCARRAL-EL PARDO","barrio":"EL PARDO","direccion":"AVENIDA PADRE CIPRIANO, 23"},"geometry":{"type":"Point","coordinates":[-3.778161,40.518404]}},{"type":"Feature","properties":{"id":5249225,"estado":"OPERATIVO","distrito":"CHAMBERI","barrio":"TRAFALGAR","direccion":"CALLE FUENCARRAL, 133"},"geometry":{"type":"Point","coordinates":[-3.703646,40.431708]}},{"type":"Feature","properties":{"id":5249801,"estado":"OPERATIVO","distrito":"CENTRO","barrio":"UNIVERSIDAD","direccion":"PLAZA CONDE DE TORENO, 1"},"geometry":{"type":"Point","coordinates":[-3.709178,40.424366]}},{"type":"Feature","properties":{"id":5250202,"estado":"OPERATIVO","distrito":"CENTRO","barrio":"UNIVERSIDAD","direccion":"CALLE AMANIEL, 10"},"geometry":{"type":"Point","coordinates":[-3.70935,40.425777]}},{"type":"Feature","properties":{"id":5270040,"estado":"OPERATIVO","distrito":"SAN BLAS-CANILLEJAS","barrio":"EL SALVADOR","direccion":"CALLE RIOBAMBA, 6"},"geometry":{"type":"Point","coordinates":[-3.633371,40.439922]}},{"type":"Feature","properties":{"id":5272335,"estado":"OPERATIVO","distrito":"ARGANZUELA","barrio":"IMPERIAL","direccion":"CALLE VILLOSLADA, 9"},"geometry":{"type":"Point","coordinates":[-3.71586,40.406477]}},{"type":"Feature","properties":{"id":5272337,"estado":"CERRADA_TEMPORALMENT","distrito":"ARGANZUELA","barrio":"LEGAZPI","direccion":"CALLE PARROCO EUSEBIO CUENCA, 64"},"geometry":{"type":"Point","coordinates":[-3.687618,40.393461]}},{"type":"Feature","properties":{"id":5279210,"estado":"CERRADA_TEMPORALMENT","distrito":"FUENCARRAL-EL PARDO","barrio":"MIRASIERRA","direccion":"CALLE MARIA DE MAEZTU, 7"},"geometry":{"type":"Point","coordinates":[-3.731275,40.488411]}},{"type":"Feature","properties":{"id":529611,"estado":"OPERATIVO","distrito":"CHAMARTIN","barrio":"CIUDAD JARDIN","direccion":"CALLE VINAROZ, 15"},"geometry":{"type":"Point","coordinates":[-3.676205,40.445859]}},{"type":"Feature","properties":{"id":529612,"estado":"OPERATIVO","distrito":"CHAMARTIN","barrio":"EL VISO","direccion":"PASEO CASTELLANA, 128"},"geometry":{"type":"Point","coordinates":[-3.690636,40.449911]}},{"type":"Feature","properties":{"id":529617,"estado":"OPERATIVO","distrito":"CHAMARTIN","barrio":"NUEVA ESPAÑA","direccion":"CALLE PUERTO RICO, 54"},"geometry":{"type":"Point","coordinates":[-3.674192,40.459147]}},{"type":"Feature","properties":{"id":529619,"estado":"OPERATIVO","distrito":"CHAMARTIN","barrio":"NUEVA ESPAÑA","direccion":"CALLE MADRE DE DIOS, 2 B"},"geometry":{"type":"Point","coordinates":[-3.675681,40.461806]}},{"type":"Feature","properties":{"id":529622,"estado":"OPERATIVO","distrito":"CHAMARTIN","barrio":"CASTILLA","direccion":"AVENIDA BURGOS, 30"},"geometry":{"type":"Point","coordinates":[-3.674893,40.479091]}},{"type":"Feature","properties":{"id":529627,"estado":"OPERATIVO","distrito":"CHAMARTIN","barrio":"NUEVA ESPAÑA","direccion":"AVENIDA PIO XII, 51"},"geometry":{"type":"Point","coordinates":[-3.675616,40.465575]}},{"type":"Feature","properties":{"id":529630,"estado":"CERRADA_TEMPORALMENT","distrito":"FUENCARRAL-EL PARDO","barrio":"VALVERDE","direccion":"CALLE PORTOMARIN, 21"},"geometry":{"type":"Point","coordinates":[-3.667714,40.512455]}},{"type":"Feature","properties":{"id":529632,"estado":"OPERATIVO","distrito":"SALAMANCA","barrio":"CASTELLANA","direccion":"PASEO CASTELLANA, 22"},"geometry":{"type":"Point","coordinates":[-3.689058,40.429998]}},{"type":"Feature","properties":{"id":529633,"estado":"OPERATIVO","distrito":"CHAMARTIN","barrio":"CASTILLA","direccion":"CALLE CONDE DE TORRALBA, 7"},"geometry":{"type":"Point","coordinates":[-3.685149,40.477715]}},{"type":"Feature","properties":{"id":529637,"estado":"OPERATIVO","distrito":"CHAMARTIN","barrio":"NUEVA ESPAÑA","direccion":"CALLE ARQUITECTO GAUDI, 9"},"geometry":{"type":"Point","coordinates":[-3.668644,40.46324]}},{"type":"Feature","properties":{"id":529641,"estado":"CERRADA_TEMPORALMENT","distrito":"FUENCARRAL-EL PARDO","barrio":"PEÑAGRANDE","direccion":"CALLE ROSALIA DE CASTRO, 69"},"geometry":{"type":"Point","coordinates":[-3.734368,40.484466]}},{"type":"Feature","properties":{"id":529643,"estado":"OPERATIVO","distrito":"SALAMANCA","barrio":"GUINDALERA","direccion":"AVENIDA TOREROS, 79"},"geometry":{"type":"Point","coordinates":[-3.661875,40.432625]}},{"type":"Feature","properties":{"id":529645,"estado":"OPERATIVO","distrito":"SALAMANCA","barrio":"LISTA","direccion":"CALLE DIEGO DE LEON, 56"},"geometry":{"type":"Point","coordinates":[-3.677578,40.434447]}},{"type":"Feature","properties":{"id":529646,"estado":"OPERATIVO","distrito":"CHAMARTIN","barrio":"NUEVA ESPAÑA","direccion":"AVENIDA ALFONSO XIII, 136"},"geometry":{"type":"Point","coordinates":[-3.669178,40.459981]}},{"type":"Feature","properties":{"id":529648,"estado":"OPERATIVO","distrito":"CHAMARTIN","barrio":"NUEVA ESPAÑA","direccion":"AVENIDA ALFONSO XIII, 180"},"geometry":{"type":"Point","coordinates":[-3.676143,40.460557]}},{"type":"Feature","properties":{"id":529649,"estado":"OPERATIVO","distrito":"SALAMANCA","barrio":"GUINDALERA","direccion":"CALLE ERASO, 21"},"geometry":{"type":"Point","coordinates":[-3.670596,40.434204]}},{"type":"Feature","properties":{"id":529382,"estado":"OPERATIVO","distrito":"CENTRO","barrio":"UNIVERSIDAD","direccion":"PLAZA COMENDADORAS, 1"},"geometry":{"type":"Point","coordinates":[-3.7086,40.427243]}},{"type":"Feature","properties":{"id":529385,"estado":"OPERATIVO","distrito":"CENTRO","barrio":"PALACIO","direccion":"PLAZA CARROS, 3"},"geometry":{"type":"Point","coordinates":[-3.711455,40.411674]}},{"type":"Feature","properties":{"id":529387,"estado":"OPERATIVO","distrito":"CENTRO","barrio":"EMBAJADORES","direccion":"CALLE MESON DE PAREDES, 50"},"geometry":{"type":"Point","coordinates":[-3.703925,40.409389]}},{"type":"Feature","properties":{"id":529390,"estado":"CERRADA_TEMPORALMENT","distrito":"TETUAN","barrio":"CUATRO CAMINOS","direccion":"AVENIDA GENERAL PERON, 13"},"geometry":{"type":"Point","coordinates":[-3.696675,40.452886]}},{"type":"Feature","properties":{"id":529391,"estado":"OPERATIVO","distrito":"TETUAN","barrio":"ALMENARA","direccion":"CALLE MARTIRES DE LA VENTILLA, 29"},"geometry":{"type":"Point","coordinates":[-3.690898,40.470621]}},{"type":"Feature","properties":{"id":529392,"estado":"CERRADA_TEMPORALMENT","distrito":"TETUAN","barrio":"VALDEACEDERAS","direccion":"CALLE PANIZO, 68"},"geometry":{"type":"Point","coordinates":[-3.7081,40.464098]}},{"type":"Feature","properties":{"id":529394,"estado":"OPERATIVO","distrito":"TETUAN","barrio":"VALDEACEDERAS","direccion":"CALLE JIRAFA, 1"},"geometry":{"type":"Point","coordinates":[-3.702585,40.468305]}},{"type":"Feature","properties":{"id":529395,"estado":"OPERATIVO","distrito":"TETUAN","barrio":"BELLAS VISTAS","direccion":"CALLE NUMANCIA, 6"},"geometry":{"type":"Point","coordinates":[-3.711928,40.454183]}},{"type":"Feature","properties":{"id":529403,"estado":"CERRADA_TEMPORALMENT","distrito":"TETUAN","barrio":"CUATRO CAMINOS","direccion":"AVENIDA PRESIDENTE CARMONA, 5"},"geometry":{"type":"Point","coordinates":[-3.697215,40.453451]}},{"type":"Feature","properties":{"id":529404,"estado":"OPERATIVO","distrito":"CENTRO","barrio":"EMBAJADORES","direccion":"PLAZA GENERAL VARA DE REY, 3"},"geometry":{"type":"Point","coordinates":[-3.708393,40.409255]}},{"type":"Feature","properties":{"id":529405,"estado":"CERRADA_TEMPORALMENT","distrito":"TETUAN","barrio":"VALDEACEDERAS","direccion":"CALLE PLATANO, 34"},"geometry":{"type":"Point","coordinates":[-3.700572,40.46847]}},{"type":"Feature","properties":{"id":529407,"estado":"OPERATIVO","distrito":"TETUAN","barrio":"CUATRO CAMINOS","direccion":"PLAZA SAN AMARO, 10"},"geometry":{"type":"Point","coordinates":[-3.696759,40.455314]}},{"type":"Feature","properties":{"id":529652,"estado":"CERRADA_TEMPORALMENT","distrito":"FUENCARRAL-EL PARDO","barrio":"EL GOLOSO","direccion":"AVENIDA MONASTERIO DE EL ESCORIAL, 3"},"geometry":{"type":"Point","coordinates":[-3.710162,40.505644]}},{"type":"Feature","properties":{"id":529657,"estado":"CERRADA_TEMPORALMENT","distrito":"FUENCARRAL-EL PARDO","barrio":"EL GOLOSO","direccion":"AVENIDA MONTECARMELO, 10"},"geometry":{"type":"Point","coordinates":[-3.703227,40.508796]}},{"type":"Feature","properties":{"id":529660,"estado":"CERRADA_TEMPORALMENT","distrito":"FUENCARRAL-EL PARDO","barrio":"FUENTELARREINA","direccion":"CALLE GABRIELA MISTRAL, 12"},"geometry":{"type":"Point","coordinates":[-3.737235,40.481436]}},{"type":"Feature","properties":{"id":529661,"estado":"CERRADA_TEMPORALMENT","distrito":"FUENCARRAL-EL PARDO","barrio":"VALVERDE","direccion":"CALLE PALAS DE REY, 4"},"geometry":{"type":"Point","coordinates":[-3.661398,40.50314]}},{"type":"Feature","properties":{"id":529663,"estado":"CERRADA_TEMPORALMENT","distrito":"FUENCARRAL-EL PARDO","barrio":"VALVERDE","direccion":"CALLE SIERRA DE ATAPUERCA, 49"},"geometry":{"type":"Point","coordinates":[-3.663924,40.508616]}},{"type":"Feature","properties":{"id":529664,"estado":"CERRADA_TEMPORALMENT","distrito":"FUENCARRAL-EL PARDO","barrio":"MIRASIERRA","direccion":"CALLE LEONOR LOPEZ DE CORDOBA, 2"},"geometry":{"type":"Point","coordinates":[-3.71932,40.496824]}},{"type":"Feature","properties":{"id":529665,"estado":"CERRADA_TEMPORALMENT","distrito":"FUENCARRAL-EL PARDO","barrio":"EL PARDO","direccion":"AVENIDA PALACIO, 2"},"geometry":{"type":"Point","coordinates":[-3.773836,40.517723]}},{"type":"Feature","properties":{"id":529666,"estado":"CERRADA_TEMPORALMENT","distrito":"FUENCARRAL-EL PARDO","barrio":"PEÑAGRANDE","direccion":"CALLE LEOPOLDO ALAS CLARIN, 2"},"geometry":{"type":"Point","coordinates":[-3.736427,40.479948]}},{"type":"Feature","properties":{"id":529668,"estado":"CERRADA_TEMPORALMENT","distrito":"FUENCARRAL-EL PARDO","barrio":"PEÑAGRANDE","direccion":"CALLE ROSALIA DE CASTRO, 77"},"geometry":{"type":"Point","coordinates":[-3.731165,40.483707]}},{"type":"Feature","properties":{"id":529669,"estado":"CERRADA_TEMPORALMENT","distrito":"FUENCARRAL-EL PARDO","barrio":"PEÑAGRANDE","direccion":"CALLE ALFONSO RODRIGUEZ CASTELAO, 21"},"geometry":{"type":"Point","coordinates":[-3.731902,40.482019]}},{"type":"Feature","properties":{"id":529671,"estado":"CERRADA_TEMPORALMENT","distrito":"FUENCARRAL-EL PARDO","barrio":"PEÑAGRANDE","direccion":"CALLE RAMON GOMEZ DE LA SERNA, 95"},"geometry":{"type":"Point","coordinates":[-3.728089,40.483446]}},{"type":"Feature","properties":{"id":529675,"estado":"OPERATIVO","distrito":"FUENCARRAL-EL PARDO","barrio":"PEÑAGRANDE","direccion":"CALLE ISLAS CIES, 5"},"geometry":{"type":"Point","coordinates":[-3.717769,40.481156]}},{"type":"Feature","properties":{"id":529676,"estado":"CERRADA_TEMPORALMENT","distrito":"FUENCARRAL-EL PARDO","barrio":"LA PAZ","direccion":"CALLE ARZOBISPO MORCILLO, 16"},"geometry":{"type":"Point","coordinates":[-3.695685,40.480946]}},{"type":"Feature","properties":{"id":529678,"estado":"CERRADA_TEMPORALMENT","distrito":"FUENCARRAL-EL PARDO","barrio":"LA PAZ","direccion":"CALLE ARZOBISPO MORCILLO, 15"},"geometry":{"type":"Point","coordinates":[-3.698586,40.480983]}},{"type":"Feature","properties":{"id":529679,"estado":"CERRADA_TEMPORALMENT","distrito":"FUENCARRAL-EL PARDO","barrio":"PEÑAGRANDE","direccion":"CALLE ISLA DE TAVIRA, 38"},"geometry":{"type":"Point","coordinates":[-3.719698,40.480625]}},{"type":"Feature","properties":{"id":529680,"estado":"OPERATIVO","distrito":"FUENCARRAL-EL PARDO","barrio":"PEÑAGRANDE","direccion":"PLAZA LA CAROLINA, 9"},